ACCELEROMETER X (m/s²),ACCELEROMETER Y (m/s²),ACCELEROMETER Z (m/s²),GRAVITY X (m/s²),GRAVITY Y (m/s²),GRAVITY Z (m/s²),LINEAR ACCELERATION X (m/s²),LINEAR ACCELERATION Y (m/s²),LINEAR ACCELERATION Z (m/s²),GYROSCOPE X (rad/s),GYROSCOPE Y (rad/s),GYROSCOPE Z (rad/s),LIGHT (lux),MAGNETIC FIELD X (μT),MAGNETIC FIELD Y (μT),MAGNETIC FIELD Z (μT),ORIENTATION Z (azimuth °),ORIENTATION X (pitch °),ORIENTATION Y (roll °),PROXIMITY (m),SOUND LEVEL (dB),LOCATION Latitude : ,LOCATION Longitude : ,LOCATION Altitude ( m),LOCATION Altitude-google ( m),LOCATION Speed ( Kmh),LOCATION Accuracy ( m),LOCATION ORIENTATION (°),Satellites in range,GPS NMEA,Time since start in ms ,YYYY-MO-DD HH-MI-SS_SSS
0.0479,3.1316,7.9009,0.2828,1.2445,9.7232,1.1685,2.021,-1.9759,-0.4936,-0.4007,-0.0684,1,24.81,-16.06,-48.94,249.75,-7.29,-1.67,5,44.683,48.1635,11.558943,,NaN,,20.76,,0 / 17,"$GNGSA,A,1,,,,,,,,,,,,,,,,,,,,,100.000,100.000,100.000*2F::$GPGSV,5,3,20,24,5,,,27,4,23,,28,45,140,,30,70,61,*43::$GPGSA,A,1,,,,,,,,,,,,,,,,,,,,,100.000,100.000,100.000*31::$QZGSA,A,1,,,,,,,,,,,,,,,,,,,,,100.000,100.000,100.000*2D::$GLGSA,A,1,,,,,,,,,,,,,,,,,,,,,100.000,100.000,100.000*2D::$GPRMC,164733.77,V,4809.8120,N,01133.5356,E,0.000,0.000,121118,,E,N*06::$GPGGA,164733.77,4809.8120,N,01133.5356,E,0,,100.000,0.000,M,,M,0,*4D::$GLGSV,5,5,20,75,86,90,,76,42,215,,82,6,325,,83,8,11,*68::$BDGSA,A,1,,,,,,,,,,,,,,,,,,,,,100.000,100.000,100.000*20",14,2018-11-12 17:47:33:970
-0.182,3.1316,6.924,0.4355,2.0203,9.5863,-0.3669,0.7353,-2.3392,0.6597,-0.463,-0.8503,0,27.19,-11.75,-49,266.26,-11.89,-2.6,5,61.137,48.1635,11.558943,,NaN,,20.76,,0 / 17,"$GNGSA,A,1,,,,,,,,,,,,,,,,,,,,,100.000,100.000,100.000*2F::$GPGSV,5,3,20,24,5,,,27,4,23,,28,45,140,,30,70,61,*43::$GPGSA,A,1,,,,,,,,,,,,,,,,,,,,,100.000,100.000,100.000*31::$QZGSA,A,1,,,,,,,,,,,,,,,,,,,,,100.000,100.000,100.000*2D::$GLGSA,A,1,,,,,,,,,,,,,,,,,,,,,100.000,100.000,100.000*2D::$GPRMC,164733.77,V,4809.8120,N,01133.5356,E,0.000,0.000,121118,,E,N*06::$GPGGA,164733.77,4809.8120,N,01133.5356,E,0,,100.000,0.000,M,,M,0,*4D::$GLGSV,5,5,20,75,86,90,,76,42,215,,82,6,325,,83,8,11,*68::$BDGSA,A,1,,,,,,,,,,,,,,,,,,,,,100.000,100.000,100.000*20",514,2018-11-12 17:47:34:470
-0.4501,2.5474,9.2512,0.1757,2.7528,9.4107,-0.9897,-0.1736,0.3469,0.2541,-0.1197,0.1026,0,26.88,-15,-48.44,267.81,-16.3,-1.07,5,39.975,48.1635,11.558943,,NaN,,20.76,,0 / 17,"$GNGSA,A,1,,,,,,,,,,,,,,,,,,,,,100.000,100.000,100.000*2F::$GPGSV,5,3,20,24,5,,,27,4,23,,28,45,140,,30,70,61,*43::$GPGSA,A,1,,,,,,,,,,,,,,,,,,,,,100.000,100.000,100.000*31::$QZGSA,A,1,,,,,,,,,,,,,,,,,,,,,100.000,100.000,100.000*2D::$GLGSA,A,1,,,,,,,,,,,,,,,,,,,,,100.000,100.000,100.000*2D::$GPRMC,164733.77,V,4809.8120,N,01133.5356,E,0.000,0.000,121118,,E,N*06::$GPGGA,164733.77,4809.8120,N,01133.5356,E,0,,100.000,0.000,M,,M,0,*4D::$GLGSV,5,5,20,75,86,90,,76,42,215,,82,6,325,,83,8,11,*68::$BDGSA,A,1,,,,,,,,,,,,,,,,,,,,,100.000,100.000,100.000*20",1014,2018-11-12 17:47:34:970
1.3791,3.2082,10.4291,1.2855,3.4695,9.0818,0.487,0.1344,1.8504,0.2969,0.7159,-0.5058,0,20.38,-18.31,-48.44,267.81,-20.72,-8.06,5,39.69,48.1635,11.558943,,NaN,,20.76,,0 / 17,"$GNGSA,A,1,,,,,,,,,,,,,,,,,,,,,100.000,100.000,100.000*2F::$GPGSV,5,3,20,24,5,,,27,4,23,,28,45,140,,30,70,61,*43::$GPGSA,A,1,,,,,,,,,,,,,,,,,,,,,100.000,100.000,100.000*31::$QZGSA,A,1,,,,,,,,,,,,,,,,,,,,,100.000,100.000,100.000*2D::$GLGSA,A,1,,,,,,,,,,,,,,,,,,,,,100.000,100.000,100.000*2D::$GPRMC,164734.77,V,4809.8120,N,01133.5356,E,0.000,0.000,121118,,E,N*01::$GPGGA,164734.77,4809.8120,N,01133.5356,E,0,,100.000,0.000,M,,M,0,*4A::$GLGSV,5,5,20,75,86,90,,76,42,215,,82,6,325,,83,8,11,*68::$BDGSA,A,1,,,,,,,,,,,,,,,,,,,,,100.000,100.000,100.000*20",1514,2018-11-12 17:47:35:470
0.8715,4.8363,12.153,0.5028,4.8068,8.5329,-0.7264,-0.6065,0.4055,-0.011,-0.1173,0.4557,0,25.13,-22.25,-43.19,268.62,-27.16,-3.43,5,38.44,48.1635,11.558943,,NaN,,20.76,,17-Jan,"$GNGSA,A,1,5,,,,,,,,,,,,,,,,,,,,100.000,100.000,100.000*1A::$GPGSV,5,3,20,24,5,,,27,4,23,,28,45,140,,30,70,61,*43::$GPGSA,A,1,5,,,,,,,,,,,,,,,,,,,,100.000,100.000,100.000*04::$QZGSA,A,1,,,,,,,,,,,,,,,,,,,,,100.000,100.000,100.000*2D::$GLGSA,A,1,,,,,,,,,,,,,,,,,,,,,100.000,100.000,100.000*2D::$GPRMC,164735.77,V,4809.8120,N,01133.5356,E,0.000,0.000,121118,,E,N*00::$GPGGA,164735.77,4809.8120,N,01133.5356,E,0,1,100.000,0.000,M,,M,0,*7A::$GLGSV,5,5,20,75,86,90,,76,42,215,,82,6,325,,83,8,11,*68::$BDGSA,A,1,,,,,,,,,,,,,,,,,,,,,100.000,100.000,100.000*20",2014,2018-11-12 17:47:35:970
1.561,4.8842,10.1418,1.0726,4.6058,8.591,-0.2023,-0.3676,3.6761,-0.5974,-0.1564,-0.2639,0,19.75,-20.37,-45.19,274.84,-28.01,-7.12,5,38.406,48.1635,11.558943,,NaN,,20.76,,17-Jan,"$GNGSA,A,1,5,,,,,,,,,,,,,,,,,,,,100.000,100.000,100.000*1A::$GPGSV,5,3,20,24,5,,,27,4,23,,28,45,140,,30,70,61,*43::$GPGSA,A,1,5,,,,,,,,,,,,,,,,,,,,100.000,100.000,100.000*04::$QZGSA,A,1,,,,,,,,,,,,,,,,,,,,,100.000,100.000,100.000*2D::$GLGSA,A,1,,,,,,,,,,,,,,,,,,,,,100.000,100.000,100.000*2D::$GPRMC,164735.77,V,4809.8120,N,01133.5356,E,0.000,0.000,121118,,E,N*00::$GPGGA,164735.77,4809.8120,N,01133.5356,E,0,1,100.000,0.000,M,,M,0,*7A::$GLGSV,5,5,20,75,86,90,,76,42,215,,82,6,325,,83,8,11,*68::$BDGSA,A,1,,,,,,,,,,,,,,,,,,,,,100.000,100.000,100.000*20",2514,2018-11-12 17:47:36:470
0.4214,4.7501,8.4946,0.2944,4.4727,8.7222,-0.3383,1.2085,1.2895,0.1014,0.4533,0.3091,0,25.38,-22.31,-40.81,264.53,-26.04,-4.58,5,39.708,48.1635,11.558943,,NaN,,20.76,,17-Feb,"$GNGSA,A,1,5,13,,,,,,,,,,,,,,,,,,,100.000,100.000,100.000*18::$GPGSV,5,3,20,24,5,,,27,4,23,,28,45,140,20,30,70,61,20*43::$GPGSA,A,1,5,13,,,,,,,,,,,,,,,,,,,100.000,100.000,100.000*06::$QZGSA,A,1,,,,,,,,,,,,,,,,,,,,,100.000,100.000,100.000*2D::$GLGSA,A,1,,,,,,,,,,,,,,,,,,,,,100.000,100.000,100.000*2D::$GPRMC,164736.77,V,4809.8120,N,01133.5356,E,0.000,0.000,121118,,E,N*03::$GPGGA,164736.77,4809.8120,N,01133.5356,E,0,2,100.000,0.000,M,,M,0,*7A::$GLGSV,5,5,20,75,86,90,,76,42,215,,82,6,325,,83,8,11,*68::$BDGSA,A,1,,,,,,,,,,,,,,,,,,,,,100.000,100.000,100.000*20",3014,2018-11-12 17:47:36:970
1.2833,4.6831,10.9367,1.0404,4.537,8.6314,0.5986,0.5138,-0.1623,0.3128,-0.4032,-0.0415,0,22.13,-24.25,-39.87,256.62,-24.58,-4.83,5,36.768,48.1635,11.558943,,NaN,,20.76,,17-Feb,"$GNGSA,A,1,5,13,,,,,,,,,,,,,,,,,,,100.000,100.000,100.000*18::$GPGSV,5,3,20,24,5,,,27,4,23,,28,45,140,20,30,70,61,20*43::$GPGSA,A,1,5,13,,,,,,,,,,,,,,,,,,,100.000,100.000,100.000*06::$QZGSA,A,1,,,,,,,,,,,,,,,,,,,,,100.000,100.000,100.000*2D::$GLGSA,A,1,,,,,,,,,,,,,,,,,,,,,100.000,100.000,100.000*2D::$GPRMC,164736.77,V,4809.8120,N,01133.5356,E,0.000,0.000,121118,,E,N*03::$GPGGA,164736.77,4809.8120,N,01133.5356,E,0,2,100.000,0.000,M,,M,0,*7A::$GLGSV,5,5,20,75,86,90,,76,42,215,,82,6,325,,83,8,11,*68::$BDGSA,A,1,,,,,,,,,,,,,,,,,,,,,100.000,100.000,100.000*20",3515,2018-11-12 17:47:37:471
0.8236,6.5122,9.7013,0.558,5.2721,8.25,0.1917,0.5778,-0.8137,0.1918,0.1833,-0.1723,0,25.94,-22.19,-37.69,263.7,-27.29,-4.96,5,39.783,48.1635,11.558943,,NaN,,20.76,,17-Mar,"$GNGSA,A,1,5,13,66,,,,,,,,,,,,,,,,,,100.000,100.000,100.000*18::$GPGSV,5,3,20,24,5,,,27,4,23,,28,45,140,20,30,70,61,20*43::$GPGSA,A,1,5,13,,,,,,,,,,,,,,,,,,,100.000,100.000,100.000*06::$QZGSA,A,1,,,,,,,,,,,,,,,,,,,,,100.000,100.000,100.000*2D::$GLGSA,A,1,66,,,,,,,,,,,,,,,,,,,,100.000,100.000,100.000*2D::$GPRMC,164737.78,V,4809.8120,N,01133.5356,E,0.000,0.000,121118,,E,N*0D::$GPGGA,164737.78,4809.8120,N,01133.5356,E,0,3,100.000,0.000,M,,M,0,*75::$GLGSV,5,5,20,75,86,90,31,76,42,215,20,82,6,325,,83,8,11,*68::$BDGSA,A,1,,,,,,,,,,,,,,,,,,,,,100.000,100.000,100.000*20",4014,2018-11-12 17:47:37:970
1.3216,5.4109,7.8434,-0.0386,6.1544,7.6349,-0.8801,-1.4505,-1.848,-0.2859,-0.3005,-0.011,0,27.25,-24.56,-33.25,267.26,-36.24,-2.46,5,40.585,48.1635,11.558943,,NaN,,20.76,,17-Mar,"$GNGSA,A,1,5,13,66,,,,,,,,,,,,,,,,,,100.000,100.000,100.000*18::$GPGSV,5,3,20,24,5,,,27,4,23,,28,45,140,20,30,70,61,20*43::$GPGSA,A,1,5,13,,,,,,,,,,,,,,,,,,,100.000,100.000,100.000*06::$QZGSA,A,1,,,,,,,,,,,,,,,,,,,,,100.000,100.000,100.000*2D::$GLGSA,A,1,66,,,,,,,,,,,,,,,,,,,,100.000,100.000,100.000*2D::$GPRMC,164737.78,V,4809.8120,N,01133.5356,E,0.000,0.000,121118,,E,N*0D::$GPGGA,164737.78,4809.8120,N,01133.5356,E,0,3,100.000,0.000,M,,M,0,*75::$GLGSV,5,5,20,75,86,90,31,76,42,215,20,82,6,325,,83,8,11,*68::$BDGSA,A,1,,,,,,,,,,,,,,,,,,,,,100.000,100.000,100.000*20",4514,2018-11-12 17:47:38:470
-1.0151,6.9528,5.0566,-0.4884,6.5387,7.2922,-0.0408,-1.1159,-2.6541,-0.2834,0.4801,0.1417,1,28.13,-24.5,-33.56,275.16,-39.38,-1.34,5,39.14,48.1635,11.558943,,NaN,,20.76,,21-Mar,"$GNGSA,A,1,5,13,66,,,,,,,,,,,,,,,,,,100.000,100.000,100.000*18::$GPGSV,6,3,24,24,5,,,27,4,23,,28,45,140,25,30,70,61,34*44::$GPGSA,A,1,5,13,,,,,,,,,,,,,,,,,,,100.000,100.000,100.000*06::$BDGSV,6,6,24,205,13,128,,207,8,39,,210,32,51,,214,33,155,*57::$QZGSA,A,1,,,,,,,,,,,,,,,,,,,,,100.000,100.000,100.000*2D::$GLGSA,A,1,66,,,,,,,,,,,,,,,,,,,,100.000,100.000,100.000*2D::$GPRMC,164738.77,V,4809.8120,N,01133.5356,E,0.000,0.000,121118,,E,N*0D::$GPGGA,164738.77,4809.8120,N,01133.5356,E,0,3,100.000,0.000,M,,M,0,*75::$GLGSV,6,5,24,75,86,89,32,76,42,215,21,82,6,325,,83,8,11,*65::$BDGSA,A,1,,,,,,,,,,,,,,,,,,,,,100.000,100.000,100.000*20",5014,2018-11-12 17:47:38:970
0.0766,5.5833,4.9129,0.1759,6.2656,7.5419,-0.0187,-1.9667,-1.1704,0.3323,-0.2737,-0.1148,1,24.69,-24,-32.12,278.7,-40.98,2.62,5,40.274,48.1635,11.558943,,NaN,,20.76,,21-Mar,"$GNGSA,A,1,5,13,66,,,,,,,,,,,,,,,,,,100.000,100.000,100.000*18::$GPGSV,6,3,24,24,5,,,27,4,23,,28,45,140,25,30,70,61,34*44::$GPGSA,A,1,5,13,,,,,,,,,,,,,,,,,,,100.000,100.000,100.000*06::$BDGSV,6,6,24,205,13,128,,207,8,39,,210,32,51,,214,33,155,*57::$QZGSA,A,1,,,,,,,,,,,,,,,,,,,,,100.000,100.000,100.000*2D::$GLGSA,A,1,66,,,,,,,,,,,,,,,,,,,,100.000,100.000,100.000*2D::$GPRMC,164738.77,V,4809.8120,N,01133.5356,E,0.000,0.000,121118,,E,N*0D::$GPGGA,164738.77,4809.8120,N,01133.5356,E,0,3,100.000,0.000,M,,M,0,*75::$GLGSV,6,5,24,75,86,89,32,76,42,215,21,82,6,325,,83,8,11,*65::$BDGSA,A,1,,,,,,,,,,,,,,,,,,,,,100.000,100.000,100.000*20",5514,2018-11-12 17:47:39:470
-0.8906,6.541,5.2768,-0.2374,6.6963,7.1605,-0.3481,-1.2917,-3.7655,-0.0709,0.2773,-0.2309,1,24.94,-23.37,-33.56,279.31,-41.19,-2.51,5,38.741,48.16345,11.558114,629.83,NaN,4.27,19,0,21-Sep,"$GNGSA,A,3,5,7,13,15,28,30,65,66,75,,,,,,,,,,,,2.440,1.382,2.011*28::$GPGSV,6,3,24,24,5,,,27,4,23,,28,45,140,31,30,70,61,34*41::$GPGSA,A,3,5,7,13,15,28,30,,,,,,,,,,,,,,,2.440,1.382,2.011*37::$BDGSV,6,6,24,205,17,125,,207,8,39,,210,32,51,,214,33,155,*5E::$QZGSA,A,3,,,,,,,,,,,,,,,,,,,,,2.440,1.382,2.011*26::$GLGSA,A,3,65,66,75,,,,,,,,,,,,,,,,,,2.440,1.382,2.011*27::$GPRMC,164741.04,A,4809.8067,N,01133.4868,E,2.306,0.000,121118,,E,A*1D::$GPGGA,164741.04,4809.8067,N,01133.4868,E,1,9,1.382,629.829,M,,M,0,*76::$GLGSV,6,5,24,75,86,89,33,76,42,215,21,82,6,325,,83,8,11,*64::$BDGSA,A,3,,,,,,,,,,,,,,,,,,,,,2.440,1.382,2.011*2B",6014,2018-11-12 17:47:39:970
-0.1532,5.2002,6.6846,0.0468,6.5153,7.3293,-0.0657,-1.4804,-0.5571,0.3555,-0.1845,-0.1735,1,23.25,-24.31,-31.56,276.08,-39.18,2.74,5,39.912,48.16345,11.558114,629.83,NaN,4.27,19,0,21-Sep,"$GNGSA,A,3,5,7,13,15,28,30,65,66,75,,,,,,,,,,,,2.440,1.382,2.011*28::$GPGSV,6,3,24,24,5,,,27,4,23,,28,45,140,31,30,70,61,34*41::$GPGSA,A,3,5,7,13,15,28,30,,,,,,,,,,,,,,,2.440,1.382,2.011*37::$BDGSV,6,6,24,205,17,125,,207,8,39,,210,32,51,,214,33,155,*5E::$QZGSA,A,3,,,,,,,,,,,,,,,,,,,,,2.440,1.382,2.011*26::$GLGSA,A,3,65,66,75,,,,,,,,,,,,,,,,,,2.440,1.382,2.011*27::$GPRMC,164741.04,A,4809.8067,N,01133.4868,E,2.306,0.000,121118,,E,A*1D::$GPGGA,164741.04,4809.8067,N,01133.4868,E,1,9,1.382,629.829,M,,M,0,*76::$GLGSV,6,5,24,75,86,89,33,76,42,215,21,82,6,325,,83,8,11,*64::$BDGSA,A,3,,,,,,,,,,,,,,,,,,,,,2.440,1.382,2.011*2B",6514,2018-11-12 17:47:40:470
-0.9864,5.9376,5.4875,-0.3686,6.8683,6.99,-1.3807,1.8079,1.72,0.2431,0.1295,-0.0892,2,25.5,-23.37,-30.31,282.76,-44.46,3.02,5,38.769,48.16345,11.558114,629.83,NaN,4.27,19,0,21-Oct,"$GNGSA,A,3,5,7,13,15,28,30,65,66,75,76,,,,,,,,,,,2.135,1.141,1.805*2D::$GPGSV,6,3,24,24,5,,,27,4,23,,28,45,140,31,30,70,61,33*46::$GPGSA,A,3,5,7,13,15,28,30,,,,,,,,,,,,,,,2.135,1.141,1.805*33::$BDGSV,6,6,24,205,17,125,,207,8,39,,210,32,51,,214,33,155,*5E::$QZGSA,A,3,,,,,,,,,,,,,,,,,,,,,2.135,1.141,1.805*22::$GLGSA,A,3,65,66,75,76,,,,,,,,,,,,,,,,,2.135,1.141,1.805*22::$GPRMC,164742.04,A,4809.8070,N,01133.4869,E,2.125,0.000,121118,,E,A*1A::$GPGGA,164742.04,4809.8070,N,01133.4869,E,1,10,1.141,641.214,M,,M,0,*4D::$GLGSV,6,5,24,75,86,89,33,76,42,215,22,82,6,325,,83,8,11,*67::$BDGSA,A,3,,,,,,,,,,,,,,,,,,,,,2.135,1.141,1.805*2F",7014,2018-11-12 17:47:40:970
1.3408,9.8737,7.3933,-0.1845,6.8167,7.0475,0.7668,2.3094,1.072,0.2089,-0.1662,-0.1051,3,21.13,-25,-28.69,277.21,-44.04,1.5,5,57.413,48.16345,11.558114,629.83,NaN,4.27,19,0,21-Oct,"$GNGSA,A,3,5,7,13,15,28,30,65,66,75,76,,,,,,,,,,,2.135,1.141,1.805*2D::$GPGSV,6,3,24,24,5,,,27,4,23,,28,45,140,31,30,70,61,33*46::$GPGSA,A,3,5,7,13,15,28,30,,,,,,,,,,,,,,,2.135,1.141,1.805*33::$BDGSV,6,6,24,205,17,125,,207,8,39,,210,32,51,,214,33,155,*5E::$QZGSA,A,3,,,,,,,,,,,,,,,,,,,,,2.135,1.141,1.805*22::$GLGSA,A,3,65,66,75,76,,,,,,,,,,,,,,,,,2.135,1.141,1.805*22::$GPRMC,164742.04,A,4809.8070,N,01133.4869,E,2.125,0.000,121118,,E,A*1A::$GPGGA,164742.04,4809.8070,N,01133.4869,E,1,10,1.141,641.214,M,,M,0,*4D::$GLGSV,6,5,24,75,86,89,33,76,42,215,22,82,6,325,,83,8,11,*67::$BDGSA,A,3,,,,,,,,,,,,,,,,,,,,,2.135,1.141,1.805*2F",7514,2018-11-12 17:47:41:470
-1.7621,9.2033,7.5178,-0.3213,6.877,6.9838,-1.4574,1.4832,3.0107,-0.1026,0.4068,-0.3531,3,24.06,-22.56,-28.25,279.98,-44.53,2.63,5,51.2,48.16345,11.558114,629.83,NaN,4.27,19,0,21-Nov,"$GNGSA,A,3,5,7,13,15,28,30,65,66,74,75,76,,,,,,,,,,1.936,1.031,1.639*21::$GPGSV,6,3,24,24,5,,,27,4,22,,28,45,139,32,30,70,61,34*4D::$GPGSA,A,3,5,7,13,15,28,30,,,,,,,,,,,,,,,1.936,1.031,1.639*3C::$BDGSV,6,6,24,205,17,125,,207,8,39,,210,32,51,,214,33,155,8*66::$QZGSA,A,3,,,,,,,,,,,,,,,,,,,,,1.936,1.031,1.639*2D::$GLGSA,A,3,65,66,74,75,76,,,,,,,,,,,,,,,,1.936,1.031,1.639*2E::$GPRMC,164743.83,A,4809.8074,N,01133.4849,E,1.803,0.000,121118,,E,A*1C::$GPGGA,164743.83,4809.8074,N,01133.4849,E,1,11,1.031,599.479,M,,M,0,*49::$GLGSV,6,5,24,75,86,89,32,76,42,215,19,82,6,325,,83,8,11,*6E::$BDGSA,A,3,,,,,,,,,,,,,,,,,,,,,1.936,1.031,1.639*20",8014,2018-11-12 17:47:41:970
-1.063,8.0349,8.3031,0.1797,6.7089,7.1503,-1.2322,0.7966,0.7943,0.1112,-0.2908,-0.2334,4,20.88,-24,-29.37,273.56,-41.59,0.03,5,48.978,48.16345,11.558114,629.83,NaN,4.27,19,0,21-Nov,"$GNGSA,A,3,5,7,13,15,28,30,65,66,74,75,76,,,,,,,,,,1.936,1.031,1.639*21::$GPGSV,6,3,24,24,5,,,27,4,22,,28,45,139,32,30,70,61,34*4D::$GPGSA,A,3,5,7,13,15,28,30,,,,,,,,,,,,,,,1.936,1.031,1.639*3C::$BDGSV,6,6,24,205,17,125,,207,8,39,,210,32,51,,214,33,155,8*66::$QZGSA,A,3,,,,,,,,,,,,,,,,,,,,,1.936,1.031,1.639*2D::$GLGSA,A,3,65,66,74,75,76,,,,,,,,,,,,,,,,1.936,1.031,1.639*2E::$GPRMC,164743.83,A,4809.8074,N,01133.4849,E,1.803,0.000,121118,,E,A*1C::$GPGGA,164743.83,4809.8074,N,01133.4849,E,1,11,1.031,599.479,M,,M,0,*49::$GLGSV,6,5,24,75,86,89,32,76,42,215,19,82,6,325,,83,8,11,*6E::$BDGSA,A,3,,,,,,,,,,,,,,,,,,,,,1.936,1.031,1.639*20",8514,2018-11-12 17:47:42:470
-0.2873,7.9679,6.359,-0.5527,7.011,6.8345,0.2405,0.5882,0.4124,0.226,0.452,0.0049,3,22,-23.44,-30.87,282.44,-43.11,1.21,5,59.061,48.16345,11.558114,629.83,NaN,4.27,19,0,14 / 21,"$GNGSA,A,3,5,7,13,15,21,28,30,214,65,66,72,74,75,76,,,,,,,1.436,0.851,1.156*1C::$GPGSV,6,3,24,24,5,,,27,4,22,,28,45,139,34,30,70,61,34*4B::$GPGSA,A,3,5,7,13,15,21,28,30,,,,,,,,,,,,,,1.436,0.851,1.156*33::$BDGSV,6,6,24,205,17,125,,207,8,39,,210,32,51,,214,33,155,26*5A::$QZGSA,A,3,,,,,,,,,,,,,,,,,,,,,1.436,0.851,1.156*21::$GLGSA,A,3,65,66,72,74,75,76,,,,,,,,,,,,,,,1.436,0.851,1.156*27::$GPRMC,164744.83,A,4809.8070,N,01133.4838,E,1.925,0.000,121118,,E,A*1C::$GPGGA,164744.83,4809.8070,N,01133.4838,E,1,14,0.851,598.404,M,,M,0,*4D::$GLGSV,6,5,24,75,86,88,33,76,42,215,20,82,6,325,,83,8,11,*64::$BDGSA,A,3,214,,,,,,,,,,,,,,,,,,,,1.436,0.851,1.156*1B",9014,2018-11-12 17:47:42:970
-1.0918,7.1251,6.7612,-0.304,6.8267,7.0336,-0.1997,0.2321,-1.3308,-0.011,-0.4814,-0.099,3,21.5,-25.25,-30.31,279.05,-43.39,3.13,5,54.384,48.16345,11.558114,629.83,NaN,4.27,19,0,14 / 21,"$GNGSA,A,3,5,7,13,15,21,28,30,214,65,66,72,74,75,76,,,,,,,1.436,0.851,1.156*1C::$GPGSV,6,3,24,24,5,,,27,4,22,,28,45,139,34,30,70,61,34*4B::$GPGSA,A,3,5,7,13,15,21,28,30,,,,,,,,,,,,,,1.436,0.851,1.156*33::$BDGSV,6,6,24,205,17,125,,207,8,39,,210,32,51,,214,33,155,26*5A::$QZGSA,A,3,,,,,,,,,,,,,,,,,,,,,1.436,0.851,1.156*21::$GLGSA,A,3,65,66,72,74,75,76,,,,,,,,,,,,,,,1.436,0.851,1.156*27::$GPRMC,164744.83,A,4809.8070,N,01133.4838,E,1.925,0.000,121118,,E,A*1C::$GPGGA,164744.83,4809.8070,N,01133.4838,E,1,14,0.851,598.404,M,,M,0,*4D::$GLGSV,6,5,24,75,86,88,33,76,42,215,20,82,6,325,,83,8,11,*64::$BDGSA,A,3,214,,,,,,,,,,,,,,,,,,,,1.436,0.851,1.156*1B",9514,2018-11-12 17:47:43:470
0.2394,6.3877,5.0182,-0.3134,6.9794,6.8818,0.6362,-0.6047,-2.3884,0.2822,0.0012,0.0098,3,20.69,-23.62,-32,278.2,-41.41,-0.43,5,48.247,48.16345,11.558114,629.83,NaN,4.27,19,0,14 / 21,"$GNGSA,A,3,5,7,13,15,21,28,30,214,65,66,72,74,75,76,,,,,,,1.436,0.851,1.156*1C::$GPGSV,6,3,24,24,5,,,27,4,22,,28,45,139,34,30,70,61,34*4B::$GPGSA,A,3,5,7,13,15,21,28,30,,,,,,,,,,,,,,1.436,0.851,1.156*33::$BDGSV,6,6,24,205,17,125,,207,8,39,,210,32,51,,214,33,155,26*5A::$QZGSA,A,3,,,,,,,,,,,,,,,,,,,,,1.436,0.851,1.156*21::$GLGSA,A,3,65,66,72,74,75,76,,,,,,,,,,,,,,,1.436,0.851,1.156*27::$GPRMC,164744.83,A,4809.8070,N,01133.4838,E,1.925,0.000,121118,,E,A*1C::$GPGGA,164744.83,4809.8070,N,01133.4838,E,1,14,0.851,598.404,M,,M,0,*4D::$GLGSV,6,5,24,75,86,88,33,76,42,215,20,82,6,325,,83,8,11,*64::$BDGSA,A,3,214,,,,,,,,,,,,,,,,,,,,1.436,0.851,1.156*1B",10014,2018-11-12 17:47:43:970
0.2969,5.2194,4.5873,0.0466,6.5165,7.3282,0.352,-1.4617,-2.6007,0.0122,-0.2077,-0.259,3,21.38,-24.81,-32.69,278.47,-41.64,-0.36,5,47.75,48.16345,11.558114,629.83,NaN,4.27,19,0,14 / 21,"$GNGSA,A,3,5,7,13,15,21,28,30,214,65,66,72,74,75,76,,,,,,,1.436,0.851,1.156*1C::$GPGSV,6,3,24,24,5,,,27,4,22,,28,45,139,35,30,70,61,35*4B::$GPGSA,A,3,5,7,13,15,21,28,30,,,,,,,,,,,,,,1.436,0.851,1.156*33::$BDGSV,6,6,24,205,17,125,,207,8,39,,210,32,51,,214,33,155,28*54::$QZGSA,A,3,,,,,,,,,,,,,,,,,,,,,1.436,0.851,1.156*21::$GLGSA,A,3,65,66,72,74,75,76,,,,,,,,,,,,,,,1.436,0.851,1.156*27::$GPRMC,164746.00,A,4809.8075,N,01133.4841,E,1.546,0.000,121118,,E,A*17::$GPGGA,164746.00,4809.8075,N,01133.4841,E,1,14,0.851,599.400,M,,M,0,*4A::$GLGSV,6,5,24,75,86,88,32,76,42,215,20,82,6,325,,83,8,11,*65::$BDGSA,A,3,214,,,,,,,,,,,,,,,,,,,,1.436,0.851,1.156*1B",10514,2018-11-12 17:47:44:470
0.2682,5.2672,7.0102,0.3868,6.1874,7.5984,-0.1912,-0.8512,-0.6491,0.2871,0.1136,-0.1136,2,22.63,-23.5,-35.25,277.99,-39.12,-2.91,5,50.141,48.16345,11.558114,629.83,NaN,4.27,19,0,14 / 21,"$GNGSA,A,3,5,7,13,15,21,28,30,214,65,66,72,74,75,76,,,,,,,1.436,0.851,1.156*1C::$GPGSV,6,3,24,24,5,,,27,4,22,,28,45,139,35,30,70,61,35*4B::$GPGSA,A,3,5,7,13,15,21,28,30,,,,,,,,,,,,,,1.436,0.851,1.156*33::$BDGSV,6,6,24,205,17,125,,207,8,39,,210,32,51,,214,33,155,28*54::$QZGSA,A,3,,,,,,,,,,,,,,,,,,,,,1.436,0.851,1.156*21::$GLGSA,A,3,65,66,72,74,75,76,,,,,,,,,,,,,,,1.436,0.851,1.156*27::$GPRMC,164746.00,A,4809.8075,N,01133.4841,E,1.546,0.000,121118,,E,A*17::$GPGGA,164746.00,4809.8075,N,01133.4841,E,1,14,0.851,599.400,M,,M,0,*4A::$GLGSV,6,5,24,75,86,88,32,76,42,215,20,82,6,325,,83,8,11,*65::$BDGSA,A,3,214,,,,,,,,,,,,,,,,,,,,1.436,0.851,1.156*1B",11015,2018-11-12 17:47:44:971
0.0287,4.8363,5.0757,0.0065,6.2602,7.5484,-0.1691,-1.4799,-2.4306,0.0867,0.0513,0.0892,2,23.75,-23.62,-35.44,279.12,-39.67,-0.05,5,57.989,48.16345,11.558114,629.83,NaN,4.27,19,0,14 / 21,"$GNGSA,A,3,5,7,8,13,15,21,28,30,214,65,72,74,75,76,,,,,,,1.295,0.766,1.044*22::$GPGSV,6,3,24,24,5,,,27,4,22,,28,45,139,34,30,70,61,32*4D::$GPGSA,A,3,5,7,8,13,15,21,28,30,,,,,,,,,,,,,1.295,0.766,1.044*0D::$BDGSV,6,6,24,205,17,125,,207,8,39,,210,32,51,,214,33,155,26*5A::$QZGSA,A,3,,,,,,,,,,,,,,,,,,,,,1.295,0.766,1.044*27::$GLGSA,A,3,65,72,74,75,76,,,,,,,,,,,,,,,,1.295,0.766,1.044*21::$GPRMC,164747.00,A,4809.8150,N,01133.4898,E,1.745,0.000,121118,,E,A*15::$GPGGA,164747.00,4809.8150,N,01133.4898,E,1,14,0.766,595.428,M,,M,0,*44::$GLGSV,6,5,24,75,86,88,31,76,42,215,18,82,6,325,,83,8,11,*6D::$BDGSA,A,3,214,,,,,,,,,,,,,,,,,,,,1.295,0.766,1.044*1D",11515,2018-11-12 17:47:45:471
2.4421,5.9376,9.1267,0.1389,6.5392,7.3068,1.8288,-0.5985,1.8309,0.5986,-0.0538,0.3409,2,22.56,-24.56,-34.81,280.56,-41.82,-1.09,5,51.201,48.16345,11.558114,629.83,NaN,4.27,19,0,14 / 21,"$GNGSA,A,3,5,7,8,13,15,21,28,30,214,65,72,74,75,76,,,,,,,1.295,0.766,1.044*22::$GPGSV,6,3,24,24,5,,,27,4,22,,28,45,139,34,30,70,61,32*4D::$GPGSA,A,3,5,7,8,13,15,21,28,30,,,,,,,,,,,,,1.295,0.766,1.044*0D::$BDGSV,6,6,24,205,17,125,,207,8,39,,210,32,51,,214,33,155,26*5A::$QZGSA,A,3,,,,,,,,,,,,,,,,,,,,,1.295,0.766,1.044*27::$GLGSA,A,3,65,72,74,75,76,,,,,,,,,,,,,,,,1.295,0.766,1.044*21::$GPRMC,164747.00,A,4809.8150,N,01133.4898,E,1.745,0.000,121118,,E,A*15::$GPGGA,164747.00,4809.8150,N,01133.4898,E,1,14,0.766,595.428,M,,M,0,*44::$GLGSV,6,5,24,75,86,88,31,76,42,215,18,82,6,325,,83,8,11,*6D::$BDGSA,A,3,214,,,,,,,,,,,,,,,,,,,,1.295,0.766,1.044*1D",12014,2018-11-12 17:47:45:970
-1.1396,8.2839,9.8162,-0.6872,6.9036,6.9308,-0.4829,1.2132,3.0355,0.463,0.336,0.551,2,27.44,-25.62,-29.5,278.82,-44.75,5.66,5,37.621,48.16345,11.558114,629.83,NaN,4.27,19,0,14 / 21,"$GNGSA,A,3,5,7,8,13,15,21,28,30,214,65,72,74,75,76,,,,,,,1.295,0.766,1.044*22::$GPGSV,7,4,25,30,70,61,32*7F::$GPGSA,A,3,5,7,8,13,15,21,28,30,,,,,,,,,,,,,1.295,0.766,1.044*0D::$BDGSV,7,7,25,205,17,125,,207,8,39,,210,32,51,28,214,33,155,24*53::$QZGSA,A,3,,,,,,,,,,,,,,,,,,,,,1.295,0.766,1.044*27::$GLGSA,A,3,65,72,74,75,76,,,,,,,,,,,,,,,,1.295,0.766,1.044*21::$GPRMC,164748.00,A,4809.8151,N,01133.4885,E,1.734,0.000,121118,,E,A*11::$GPGGA,164748.00,4809.8151,N,01133.4885,E,1,14,0.766,596.850,M,,M,0,*46::$GLGSV,7,6,25,75,86,88,30,76,42,215,19,82,6,325,,83,8,11,*6E::$BDGSA,A,3,214,,,,,,,,,,,,,,,,,,,,1.295,0.766,1.044*1D",12514,2018-11-12 17:47:46:470
0.0862,8.5138,7.039,0.2825,7.1103,6.7478,-0.2058,1.4185,0.266,-0.0599,-0.4374,0.0391,2,23.25,-27.44,-29.37,272.93,-45.07,-0.91,5,46.621,48.16345,11.558114,629.83,NaN,4.27,19,0,14 / 21,"$GNGSA,A,3,5,7,8,13,15,21,28,30,214,65,72,74,75,76,,,,,,,1.295,0.766,1.044*22::$GPGSV,7,4,25,30,70,61,32*7F::$GPGSA,A,3,5,7,8,13,15,21,28,30,,,,,,,,,,,,,1.295,0.766,1.044*0D::$BDGSV,7,7,25,205,17,125,,207,8,39,,210,32,51,28,214,33,155,24*53::$QZGSA,A,3,,,,,,,,,,,,,,,,,,,,,1.295,0.766,1.044*27::$GLGSA,A,3,65,72,74,75,76,,,,,,,,,,,,,,,,1.295,0.766,1.044*21::$GPRMC,164748.00,A,4809.8151,N,01133.4885,E,1.734,0.000,121118,,E,A*11::$GPGGA,164748.00,4809.8151,N,01133.4885,E,1,14,0.766,596.850,M,,M,0,*46::$GLGSV,7,6,25,75,86,88,30,76,42,215,19,82,6,325,,83,8,11,*6E::$BDGSA,A,3,214,,,,,,,,,,,,,,,,,,,,1.295,0.766,1.044*1D",13014,2018-11-12 17:47:46:970
0.0096,6.9432,5.8802,-0.3206,7.2266,6.6213,0.222,-0.1676,-0.8754,0.1552,0.2358,0.2737,3,26,-25.12,-30,275.9,-44.11,-0.66,5,51.59,48.16345,11.558114,629.83,NaN,4.27,19,0,16 / 21,"$GNGSA,A,3,5,7,8,9,13,15,21,28,30,210,214,65,72,74,75,76,,,,,1.147,0.696,0.911*22::$GPGSV,7,4,25,30,70,61,33*7E::$GPGSA,A,3,5,7,8,9,13,15,21,28,30,,,,,,,,,,,,1.147,0.696,0.911*3E::$BDGSV,7,7,25,205,17,125,,207,8,39,,210,32,51,28,214,33,155,26*51::$QZGSA,A,3,,,,,,,,,,,,,,,,,,,,,1.147,0.696,0.911*2D::$GLGSA,A,3,65,72,74,75,76,,,,,,,,,,,,,,,,1.147,0.696,0.911*2B::$GPRMC,164749.00,A,4809.8156,N,01133.4877,E,1.666,0.000,121118,,E,A*1C::$GPGGA,164749.00,4809.8156,N,01133.4877,E,1,16,0.696,597.300,M,,M,0,*4E::$GLGSV,7,6,25,75,86,88,31,76,42,215,21,82,6,325,,83,8,11,*64::$BDGSA,A,3,210,214,,,,,,,,,,,,,,,,,,,1.147,0.696,0.911*24",13515,2018-11-12 17:47:47:471
0.2586,5.1427,4.9321,0.1894,6.7493,7.112,0.0426,-1.5376,-2.2569,0.0538,-0.5742,-0.1112,3,23.63,-27.75,-28.87,267.74,-43.04,-1.03,5,53.108,48.16345,11.558114,629.83,NaN,4.27,19,0,16 / 21,"$GNGSA,A,3,5,7,8,9,13,15,21,28,30,210,214,65,72,74,75,76,,,,,1.147,0.696,0.911*22::$GPGSV,7,4,25,30,70,61,33*7E::$GPGSA,A,3,5,7,8,9,13,15,21,28,30,,,,,,,,,,,,1.147,0.696,0.911*3E::$BDGSV,7,7,25,205,17,125,,207,8,39,,210,32,51,28,214,33,155,26*51::$QZGSA,A,3,,,,,,,,,,,,,,,,,,,,,1.147,0.696,0.911*2D::$GLGSA,A,3,65,72,74,75,76,,,,,,,,,,,,,,,,1.147,0.696,0.911*2B::$GPRMC,164749.00,A,4809.8156,N,01133.4877,E,1.666,0.000,121118,,E,A*1C::$GPGGA,164749.00,4809.8156,N,01133.4877,E,1,16,0.696,597.300,M,,M,0,*4E::$GLGSV,7,6,25,75,86,88,31,76,42,215,21,82,6,325,,83,8,11,*64::$BDGSA,A,3,210,214,,,,,,,,,,,,,,,,,,,1.147,0.696,0.911*24",14014,2018-11-12 17:47:47:970
0.0862,5.3822,6.2632,0.0853,6.6879,7.1717,-0.2122,-1.1206,-1.0853,0.5889,0.2932,0.044,4,21.69,-26.25,-32,274.62,-43.03,-3.32,5,50.122,48.16345,11.558114,629.83,NaN,4.27,19,0,16 / 21,"$GNGSA,A,3,5,7,8,9,13,15,21,28,30,210,214,65,72,74,75,76,,,,,1.147,0.696,0.911*22::$GPGSV,7,4,25,30,70,61,34*79::$GPGSA,A,3,5,7,8,9,13,15,21,28,30,,,,,,,,,,,,1.147,0.696,0.911*3E::$BDGSV,7,7,25,205,17,125,,207,8,39,,210,32,51,27,214,33,155,25*5D::$QZGSA,A,3,,,,,,,,,,,,,,,,,,,,,1.147,0.696,0.911*2D::$GLGSA,A,3,65,72,74,75,76,,,,,,,,,,,,,,,,1.147,0.696,0.911*2B::$GPRMC,164750.00,A,4809.8157,N,01133.4860,E,1.779,0.000,121118,,E,A*1C::$GPGGA,164750.00,4809.8157,N,01133.4860,E,1,16,0.696,597.280,M,,M,0,*48::$GLGSV,7,6,25,75,86,88,31,76,42,215,20,82,6,325,,83,8,11,*65::$BDGSA,A,3,210,214,,,,,,,,,,,,,,,,,,,1.147,0.696,0.911*24",14514,2018-11-12 17:47:48:470
-0.2969,6.8953,6.5697,-0.1238,7.2172,6.6382,0.0955,-0.5722,0.2146,-0.4972,0.0159,0.1112,5,24.5,-30.5,-23.56,276.35,-52.74,4.83,5,51.198,48.16345,11.558114,629.83,NaN,4.27,19,0,16 / 21,"$GNGSA,A,3,5,7,8,9,13,15,21,28,30,210,214,65,72,74,75,76,,,,,1.147,0.696,0.911*22::$GPGSV,7,4,25,30,70,61,34*79::$GPGSA,A,3,5,7,8,9,13,15,21,28,30,,,,,,,,,,,,1.147,0.696,0.911*3E::$BDGSV,7,7,25,205,17,125,,207,8,39,,210,32,51,27,214,33,155,25*5D::$QZGSA,A,3,,,,,,,,,,,,,,,,,,,,,1.147,0.696,0.911*2D::$GLGSA,A,3,65,72,74,75,76,,,,,,,,,,,,,,,,1.147,0.696,0.911*2B::$GPRMC,164750.00,A,4809.8157,N,01133.4860,E,1.779,0.000,121118,,E,A*1C::$GPGGA,164750.00,4809.8157,N,01133.4860,E,1,16,0.696,597.280,M,,M,0,*48::$GLGSV,7,6,25,75,86,88,31,76,42,215,20,82,6,325,,83,8,11,*65::$BDGSA,A,3,210,214,,,,,,,,,,,,,,,,,,,1.147,0.696,0.911*24",15015,2018-11-12 17:47:48:971
-0.7949,5.1619,5.6886,0.4202,7.0988,6.7528,0.2124,-0.157,0.1914,-0.391,0.11,-0.6744,5,21,-26.87,-29.31,273.47,-46.38,-3.56,5,39.738,48.16345,11.558114,629.83,NaN,4.27,19,0,16 / 21,"$GNGSA,A,3,5,7,8,9,13,15,21,28,30,210,214,65,72,74,75,76,,,,,1.147,0.696,0.911*22::$GPGSV,7,4,25,30,70,61,34*79::$GPGSA,A,3,5,7,8,9,13,15,21,28,30,,,,,,,,,,,,1.147,0.696,0.911*3E::$BDGSV,7,7,25,205,17,125,,207,8,39,,210,32,51,26,214,33,155,23*5A::$QZGSA,A,3,,,,,,,,,,,,,,,,,,,,,1.147,0.696,0.911*2D::$GLGSA,A,3,65,72,74,75,76,,,,,,,,,,,,,,,,1.147,0.696,0.911*2B::$GPRMC,164751.00,A,4809.8159,N,01133.4844,E,1.707,0.000,121118,,E,A*1C::$GPGGA,164751.00,4809.8159,N,01133.4844,E,1,16,0.696,596.452,M,,M,0,*49::$GLGSV,7,6,25,75,86,88,34,76,42,215,22,82,6,325,12,83,8,11,*61::$BDGSA,A,3,210,214,,,,,,,,,,,,,,,,,,,1.147,0.696,0.911*24",15514,2018-11-12 17:47:49:470
0.3448,6.3782,6.6559,-0.2433,7.4178,6.4099,0.7741,-1.16,0.5794,0.2089,0.4044,0.5852,7,22.25,-30.5,-24.44,267.69,-49.15,2.17,5,39.966,48.16345,11.558114,629.83,NaN,4.27,19,0,16 / 21,"$GNGSA,A,3,5,7,8,9,13,15,21,28,30,210,214,65,72,74,75,76,,,,,1.147,0.696,0.911*22::$GPGSV,7,3,25,21,6,328,16,24,5,,,27,4,22,,28,45,139,28*49::$GPGSA,A,3,5,7,8,9,13,15,21,28,30,,,,,,,,,,,,1.147,0.696,0.911*3E::$BDGSV,7,7,25,205,17,125,,207,8,39,,210,32,51,26,214,33,155,23*5A::$QZGSA,A,3,,,,,,,,,,,,,,,,,,,,,1.147,0.696,0.911*2D::$GLGSA,A,3,65,72,74,75,76,,,,,,,,,,,,,,,,1.147,0.696,0.911*2B::$GPRMC,164751.00,A,4809.8159,N,01133.4844,E,1.707,0.000,121118,,E,A*1C::$GPGGA,164752.00,4809.8161,N,01133.4827,E,1,16,0.696,596.375,M,,M,0,*46::$GLGSV,7,6,25,75,86,88,34,76,42,215,22,82,6,325,12,83,8,11,*61::$BDGSA,A,3,210,214,,,,,,,,,,,,,,,,,,,1.147,0.696,0.911*24",16016,2018-11-12 17:47:49:972
0.0958,9.1267,6.9432,0.5572,6.7155,7.1247,-0.0968,1.9721,0.2318,-0.485,-1.2547,-0.1173,6,20.44,-28.19,-27.62,271.86,-46.45,-1.31,5,37.415,48.16345,11.558114,629.83,NaN,4.27,19,0,16 / 21,"$GNGSA,A,3,5,7,8,9,13,15,21,28,30,210,214,65,72,74,75,76,,,,,1.147,0.696,0.911*22::$GPGSV,7,4,25,30,70,61,35*78::$GPGSA,A,3,5,7,8,9,13,15,21,28,30,,,,,,,,,,,,1.147,0.696,0.911*3E::$BDGSV,7,7,25,205,17,125,,207,8,39,,210,32,51,28,214,33,155,22*55::$QZGSA,A,3,,,,,,,,,,,,,,,,,,,,,1.147,0.696,0.911*2D::$GLGSA,A,3,65,72,74,75,76,,,,,,,,,,,,,,,,1.147,0.696,0.911*2B::$GPRMC,164752.00,A,4809.8161,N,01133.4827,E,2.422,268.756,121118,,E,A*1E::$GPGGA,164752.00,4809.8161,N,01133.4827,E,1,16,0.696,596.375,M,,M,0,*46::$GLGSV,7,6,25,75,86,87,31,76,42,215,22,82,6,325,14,83,8,11,*6D::$BDGSA,A,3,210,214,,,,,,,,,,,,,,,,,,,1.147,0.696,0.911*24",16514,2018-11-12 17:47:50:470
-0.6321,10.5632,6.4931,-0.3911,7.2133,6.6321,-0.2355,3.0894,0.1531,0.11,0.2724,0.4032,7,23.13,-25.75,-28.75,279.33,-46.78,1.2,5,39.346,48.16345,11.558114,629.83,NaN,4.27,19,0,16 / 21,"$GNGSA,A,3,5,7,8,9,13,15,21,28,30,210,214,65,72,74,75,76,,,,,1.147,0.696,0.911*22::$GPGSV,7,4,25,30,70,61,34*79::$GPGSA,A,3,5,7,8,9,13,15,21,28,30,,,,,,,,,,,,1.147,0.696,0.911*3E::$BDGSV,7,7,25,205,17,125,,207,8,39,,210,32,51,30,214,33,155,25*5B::$QZGSA,A,3,,,,,,,,,,,,,,,,,,,,,1.147,0.696,0.911*2D::$GLGSA,A,3,65,72,74,75,76,,,,,,,,,,,,,,,,1.147,0.696,0.911*2B::$GPRMC,164753.00,A,4809.8164,N,01133.4815,E,1.959,266.559,121118,,E,A*1A::$GPGGA,164753.00,4809.8164,N,01133.4815,E,1,16,0.696,596.354,M,,M,0,*40::$GLGSV,7,6,25,75,86,87,32,76,42,215,25,82,6,325,16,83,8,11,*6B::$BDGSA,A,3,210,214,,,,,,,,,,,,,,,,,,,1.147,0.696,0.911*24",17014,2018-11-12 17:47:50:970
-0.1149,9.4332,7.1635,0.1613,7.2818,6.5665,-0.2269,1.9834,0.7719,0.1136,-0.2883,-0.3164,7,19.88,-28.94,-25.44,262.06,-44.91,0.53,5,41.357,48.16345,11.558114,629.83,NaN,4.27,19,0,16 / 21,"$GNGSA,A,3,5,7,8,9,13,15,21,28,30,210,214,65,72,74,75,76,,,,,1.147,0.696,0.911*22::$GPGSV,7,4,25,30,70,61,34*79::$GPGSA,A,3,5,7,8,9,13,15,21,28,30,,,,,,,,,,,,1.147,0.696,0.911*3E::$BDGSV,7,7,25,205,17,125,,207,8,39,,210,32,51,30,214,33,155,25*5B::$QZGSA,A,3,,,,,,,,,,,,,,,,,,,,,1.147,0.696,0.911*2D::$GLGSA,A,3,65,72,74,75,76,,,,,,,,,,,,,,,,1.147,0.696,0.911*2B::$GPRMC,164753.00,A,4809.8164,N,01133.4815,E,1.959,266.559,121118,,E,A*1A::$GPGGA,164753.00,4809.8164,N,01133.4815,E,1,16,0.696,596.354,M,,M,0,*40::$GLGSV,7,6,25,75,86,87,32,76,42,215,25,82,6,325,16,83,8,11,*6B::$BDGSA,A,3,210,214,,,,,,,,,,,,,,,,,,,1.147,0.696,0.911*24",17514,2018-11-12 17:47:51:470
-0.9768,8.3031,6.5697,-0.4138,7.1677,6.68,-0.574,1.0452,-0.0297,-0.0122,0.3335,-0.1014,5,21.5,-25.12,-29.06,276.27,-45.88,-2.93,5,41.622,48.16345,11.558114,629.83,NaN,4.27,19,0,16 / 21,"$GNGSA,A,3,5,7,8,9,13,15,21,28,30,210,214,65,72,74,75,76,,,,,1.147,0.696,0.911*22::$GPGSV,7,4,25,30,70,61,34*79::$GPGSA,A,3,5,7,8,9,13,15,21,28,30,,,,,,,,,,,,1.147,0.696,0.911*3E::$BDGSV,7,7,25,205,17,125,,207,8,39,,210,32,51,30,214,33,155,25*5B::$QZGSA,A,3,,,,,,,,,,,,,,,,,,,,,1.147,0.696,0.911*2D::$GLGSA,A,3,65,72,74,75,76,,,,,,,,,,,,,,,,1.147,0.696,0.911*2B::$GPRMC,164753.00,A,4809.8164,N,01133.4815,E,1.959,266.559,121118,,E,A*1A::$GPGGA,164753.00,4809.8164,N,01133.4815,E,1,16,0.696,596.354,M,,M,0,*40::$GLGSV,7,6,25,75,86,87,32,76,42,215,25,82,6,325,16,83,8,11,*6B::$BDGSA,A,3,210,214,,,,,,,,,,,,,,,,,,,1.147,0.696,0.911*24",18015,2018-11-12 17:47:51:971
-0.4788,5.8131,4.4724,0.0253,6.8261,7.0408,-0.0401,-0.5229,-2.6199,-0.022,0.3189,-0.16,5,19.56,-27.56,-26,264.16,-44.11,-0.21,5,41.473,48.16345,11.558114,629.83,NaN,4.27,19,0,16 / 21,"$GNGSA,A,3,5,7,8,9,13,15,21,28,30,210,214,65,72,74,75,76,,,,,1.147,0.696,0.911*22::$GPGSV,7,4,25,30,70,61,34*79::$GPGSA,A,3,5,7,8,9,13,15,21,28,30,,,,,,,,,,,,1.147,0.696,0.911*3E::$BDGSV,7,7,25,205,17,125,,207,8,39,,210,32,51,30,214,33,155,23*5D::$QZGSA,A,3,,,,,,,,,,,,,,,,,,,,,1.147,0.696,0.911*2D::$GLGSA,A,3,65,72,74,75,76,,,,,,,,,,,,,,,,1.147,0.696,0.911*2B::$GPRMC,164754.00,A,4809.8168,N,01133.4804,E,1.526,273.243,121118,,E,A*1D::$GPGGA,164754.00,4809.8168,N,01133.4804,E,1,16,0.696,597.311,M,,M,0,*4B::$GLGSV,7,6,25,75,86,87,32,76,42,215,27,82,6,325,16,83,8,11,*69::$BDGSA,A,3,210,214,,,,,,,,,,,,,,,,,,,1.147,0.696,0.911*24",18514,2018-11-12 17:47:52:470
-1.5131,5.9376,4.9129,-0.4738,7.7583,5.9794,-0.3892,-1.2775,-1.684,0.3457,0.3848,-0.1466,4,21.69,-27.56,-24.62,272.54,-49.94,-0.43,5,40.924,48.16345,11.558114,629.83,NaN,4.27,19,0,15 / 21,"$GNGSA,A,3,5,7,8,9,13,15,28,30,210,214,65,72,74,75,76,,,,,,1.236,0.741,0.989*2E::$GPGSV,7,4,25,30,70,61,35*78::$GPGSA,A,3,5,7,8,9,13,15,28,30,,,,,,,,,,,,,1.236,0.741,0.989*32::$BDGSV,7,7,25,205,17,125,,207,8,39,,210,32,51,31,214,33,155,23*5C::$QZGSA,A,3,,,,,,,,,,,,,,,,,,,,,1.236,0.741,0.989*22::$GLGSA,A,3,65,72,74,75,76,,,,,,,,,,,,,,,,1.236,0.741,0.989*24::$GPRMC,164755.00,A,4809.8174,N,01133.4791,E,1.775,266.300,121118,,E,A*14::$GPGGA,164755.00,4809.8174,N,01133.4791,E,1,15,0.741,598.381,M,,M,0,*4A::$GLGSV,7,6,25,75,86,87,32,76,42,215,32,82,6,325,16,83,8,11,*6D::$BDGSA,A,3,210,214,,,,,,,,,,,,,,,,,,,1.236,0.741,0.989*2B",19014,2018-11-12 17:47:52:970
0.3256,6.4739,6.0908,-0.6886,7.5839,6.1789,1.1945,-1.1702,-0.2075,0.1649,-0.0134,0.0684,1,22.75,-29.06,-22.44,270.66,-48.47,10.95,5,40.932,48.16345,11.558114,629.83,NaN,4.27,19,0,15 / 21,"$GNGSA,A,3,5,7,8,9,13,15,28,30,210,214,65,72,74,75,76,,,,,,1.236,0.741,0.989*2E::$GPGSV,7,4,25,30,70,61,35*78::$GPGSA,A,3,5,7,8,9,13,15,28,30,,,,,,,,,,,,,1.236,0.741,0.989*32::$BDGSV,7,7,25,205,17,125,,207,8,39,,210,32,51,31,214,33,155,23*5C::$QZGSA,A,3,,,,,,,,,,,,,,,,,,,,,1.236,0.741,0.989*22::$GLGSA,A,3,65,72,74,75,76,,,,,,,,,,,,,,,,1.236,0.741,0.989*24::$GPRMC,164755.00,A,4809.8174,N,01133.4791,E,1.775,266.300,121118,,E,A*14::$GPGGA,164755.00,4809.8174,N,01133.4791,E,1,15,0.741,598.381,M,,M,0,*4A::$GLGSV,7,6,25,75,86,87,32,76,42,215,32,82,6,325,16,83,8,11,*6D::$BDGSA,A,3,210,214,,,,,,,,,,,,,,,,,,,1.236,0.741,0.989*2B",19514,2018-11-12 17:47:53:470
0.0096,7.2592,5.9568,-0.1124,7.7103,6.0586,0.7765,-0.7153,-0.3484,-0.1026,-0.0538,-0.3299,2,20.31,-29.87,-23.87,270.07,-51.4,-0.05,5,44.527,48.16345,11.558114,629.83,NaN,4.27,19,0,15 / 21,"$GNGSA,A,3,5,7,8,9,13,15,28,30,210,214,65,72,74,75,76,,,,,,1.236,0.741,0.989*2E::$GPGSV,7,4,25,30,70,61,36*7B::$GPGSA,A,3,5,7,8,9,13,15,28,30,,,,,,,,,,,,,1.236,0.741,0.989*32::$BDGSV,7,7,25,205,17,125,,207,8,39,,210,32,51,30,214,33,155,26*58::$QZGSA,A,3,,,,,,,,,,,,,,,,,,,,,1.236,0.741,0.989*22::$GLGSA,A,3,65,72,74,75,76,,,,,,,,,,,,,,,,1.236,0.741,0.989*24::$GPRMC,164755.00,A,4809.8174,N,01133.4791,E,1.775,266.300,121118,,E,A*14::$GPGGA,164756.00,4809.8179,N,01133.4781,E,1,15,0.741,598.655,M,,M,0,*49::$GLGSV,7,6,25,75,86,87,33,76,42,215,34,82,6,325,16,83,8,11,*6A::$BDGSA,A,3,210,214,,,,,,,,,,,,,,,,,,,1.236,0.741,0.989*2B",20015,2018-11-12 17:47:53:971
-1.7047,10.5919,4.8937,-0.8297,7.8139,5.8672,-0.6362,-0.1605,5.7118,-0.0098,0.3543,0.0977,1,23.75,-29.69,-21.5,275.36,-55.1,6.02,5,37.965,48.16345,11.558114,629.83,NaN,4.27,19,0,15 / 21,"$GNGSA,A,3,5,7,8,9,13,15,28,30,210,214,65,72,74,75,76,,,,,,1.236,0.741,0.989*2E::$GPGSV,7,4,25,30,70,61,36*7B::$GPGSA,A,3,5,7,8,9,13,15,28,30,,,,,,,,,,,,,1.236,0.741,0.989*32::$BDGSV,7,7,25,205,17,125,,207,8,39,,210,32,51,30,214,33,155,26*58::$QZGSA,A,3,,,,,,,,,,,,,,,,,,,,,1.236,0.741,0.989*22::$GLGSA,A,3,65,72,74,75,76,,,,,,,,,,,,,,,,1.236,0.741,0.989*24::$GPRMC,164756.00,A,4809.8179,N,01133.4781,E,2.264,271.985,121118,,E,A*1C::$GPGGA,164756.00,4809.8179,N,01133.4781,E,1,15,0.741,598.655,M,,M,0,*49::$GLGSV,7,6,25,75,86,87,33,76,42,215,34,82,6,325,16,83,8,11,*6A::$BDGSA,A,3,210,214,,,,,,,,,,,,,,,,,,,1.236,0.741,0.989*2B",20514,2018-11-12 17:47:54:470
-0.2969,7.5465,5.4109,-0.075,7.5764,6.2259,1.8991,2.0732,6.6894,-0.711,-0.8381,-0.2431,1,21.94,-29.25,-23.75,278.1,-52.27,5.42,5,39.576,48.16345,11.558114,629.83,NaN,4.27,19,0,15 / 21,"$GNGSA,A,3,5,7,8,9,13,15,28,30,210,214,65,72,74,75,76,,,,,,1.236,0.741,0.989*2E::$GPGSV,7,4,25,30,70,61,36*7B::$GPGSA,A,3,5,7,8,9,13,15,28,30,,,,,,,,,,,,,1.236,0.741,0.989*32::$BDGSV,7,7,25,205,17,125,,207,8,39,,210,32,51,30,214,33,155,26*58::$QZGSA,A,3,,,,,,,,,,,,,,,,,,,,,1.236,0.741,0.989*22::$GLGSA,A,3,65,72,74,75,76,,,,,,,,,,,,,,,,1.236,0.741,0.989*24::$GPRMC,164756.00,A,4809.8179,N,01133.4781,E,2.264,271.985,121118,,E,A*1C::$GPGGA,164757.00,4809.8186,N,01133.4769,E,1,15,0.741,599.399,M,,M,0,*4A::$GLGSV,7,6,25,75,86,87,33,76,42,215,34,82,6,325,16,83,8,11,*6A::$BDGSA,A,3,210,214,,,,,,,,,,,,,,,,,,,1.236,0.741,0.989*2B",21014,2018-11-12 17:47:54:970
-1.6568,11.0325,5.0757,-0.9255,7.9491,5.6678,-0.4179,2.4753,1.6773,0.4117,0.1857,0.3567,1,25.81,-27.87,-22.69,281.39,-52.96,8.84,5,41.206,48.16345,11.558114,629.83,NaN,4.27,19,0,15 / 21,"$GNGSA,A,3,5,7,8,9,13,15,28,30,210,214,65,72,74,75,76,,,,,,1.236,0.741,0.989*2E::$GPGSV,7,4,25,30,70,61,36*7B::$GPGSA,A,3,5,7,8,9,13,15,28,30,,,,,,,,,,,,,1.236,0.741,0.989*32::$BDGSV,7,7,25,205,17,125,,207,8,39,,210,32,51,28,214,33,155,20*57::$QZGSA,A,3,,,,,,,,,,,,,,,,,,,,,1.236,0.741,0.989*22::$GLGSA,A,3,65,72,74,75,76,,,,,,,,,,,,,,,,1.236,0.741,0.989*24::$GPRMC,164757.00,A,4809.8186,N,01133.4769,E,2.086,266.324,121118,,E,A*12::$GPGGA,164757.00,4809.8186,N,01133.4769,E,1,15,0.741,599.399,M,,M,0,*4A::$GLGSV,7,6,25,75,86,87,33,76,42,215,33,82,6,325,17,83,8,11,*6C::$BDGSA,A,3,210,214,,,,,,,,,,,,,,,,,,,1.236,0.741,0.989*2B",21514,2018-11-12 17:47:55:470
-1.4844,9.7396,5.7269,-0.5362,8.0496,5.5755,-0.6405,1.1195,-0.0641,0.2395,-0.4691,-0.0195,1,23,-30.12,-20.81,269.06,-51.85,5.56,5,46.411,48.16345,11.558114,629.83,NaN,4.27,19,0,14 / 21,"$GNGSA,A,3,5,7,8,9,13,15,28,30,210,214,65,72,74,75,76,,,,,,1.236,0.741,0.989*2E::$GPGSV,7,4,25,30,70,61,36*7B::$GPGSA,A,3,5,7,8,9,13,15,28,30,,,,,,,,,,,,,1.236,0.741,0.989*32::$BDGSV,7,7,25,205,17,125,,207,8,39,,210,32,51,28,214,33,155,20*57::$QZGSA,A,3,,,,,,,,,,,,,,,,,,,,,1.236,0.741,0.989*22::$GLGSA,A,3,65,72,74,75,76,,,,,,,,,,,,,,,,1.236,0.741,0.989*24::$GPRMC,164757.00,A,4809.8186,N,01133.4769,E,2.086,266.324,121118,,E,A*12::$GPGGA,164757.00,4809.8186,N,01133.4769,E,1,15,0.741,599.399,M,,M,0,*4A::$GLGSV,7,6,25,75,86,87,33,76,42,215,33,82,6,325,17,83,8,11,*6C::$BDGSA,A,3,210,214,,,,,,,,,,,,,,,,,,,1.236,0.741,0.989*2B",22014,2018-11-12 17:47:55:970
0.0766,8.5808,4.8937,-0.8759,8.196,5.3129,0.209,-0.4487,-0.4096,0.0648,0.6182,-0.0599,1,22.88,-29.44,-21.31,271.4,-52.7,4.52,5,45.159,48.16345,11.558114,629.83,NaN,4.27,19,0,14 / 21,"$GNGSA,A,3,5,7,9,13,15,28,30,210,214,65,72,74,75,76,,,,,,,1.298,0.769,1.045*10::$GPGSV,7,4,25,30,70,61,36*7B::$GPGSA,A,3,5,7,9,13,15,28,30,,,,,,,,,,,,,,1.298,0.769,1.045*0C::$BDGSV,7,7,25,205,17,125,,207,8,39,,210,32,51,26,214,33,155,24*5D::$QZGSA,A,3,,,,,,,,,,,,,,,,,,,,,1.298,0.769,1.045*24::$GLGSA,A,3,65,72,74,75,76,,,,,,,,,,,,,,,,1.298,0.769,1.045*22::$GPRMC,164758.00,A,4809.8189,N,01133.4759,E,1.522,243.510,121118,,E,A*1F::$GPGGA,164758.00,4809.8189,N,01133.4759,E,1,14,0.769,599.542,M,,M,0,*42::$GLGSV,7,6,25,75,86,87,32,76,42,215,31,82,6,325,17,83,8,11,*6F::$BDGSA,A,3,210,214,,,,,,,,,,,,,,,,,,,1.298,0.769,1.045*2D",22514,2018-11-12 17:47:56:470
-0.6895,7.0006,3.3423,-0.9569,8.1237,5.4091,0.0155,-2.1613,-1.8395,-0.0195,0.0024,0.171,1,22.31,-32.25,-16,264.86,-55.93,10.03,5,39.608,48.16345,11.558114,629.83,NaN,4.27,19,0,16 / 21,"$GNGSA,A,3,5,7,8,9,13,15,21,28,30,210,214,65,72,74,75,76,,,,,1.147,0.696,0.911*22::$GPGSV,7,4,25,30,70,61,37*7A::$GPGSA,A,3,5,7,8,9,13,15,21,28,30,,,,,,,,,,,,1.147,0.696,0.911*3E::$BDGSV,7,7,25,205,17,125,,207,8,39,,210,32,51,27,214,33,155,20*58::$QZGSA,A,3,,,,,,,,,,,,,,,,,,,,,1.147,0.696,0.911*2D::$GLGSA,A,3,65,72,74,75,76,,,,,,,,,,,,,,,,1.147,0.696,0.911*2B::$GPRMC,164758.00,A,4809.8189,N,01133.4759,E,1.522,243.510,121118,,E,A*1F::$GPGGA,164759.00,4809.8191,N,01133.4754,E,1,16,0.696,599.745,M,,M,0,*41::$GLGSV,7,6,25,75,86,86,34,76,42,215,32,82,6,325,17,83,8,11,*6B::$BDGSA,A,3,210,214,,,,,,,,,,,,,,,,,,,1.147,0.696,0.911*24",23014,2018-11-12 17:47:56:970
-0.9481,6.0813,2.8539,-0.6149,8.0061,5.6296,-0.8168,-2.1614,-1.4716,-0.0379,0.1063,-0.1491,0,23.19,-31.06,-18.37,266.57,-54.73,6.23,5,40.632,48.16345,11.558114,629.83,NaN,4.27,19,0,16 / 21,"$GNGSA,A,3,5,7,8,9,13,15,21,28,30,210,214,65,72,74,75,76,,,,,1.147,0.696,0.911*22::$GPGSV,7,4,25,30,70,61,37*7A::$GPGSA,A,3,5,7,8,9,13,15,21,28,30,,,,,,,,,,,,1.147,0.696,0.911*3E::$BDGSV,7,7,25,205,17,125,,207,8,39,,210,32,51,27,214,33,155,20*58::$QZGSA,A,3,,,,,,,,,,,,,,,,,,,,,1.147,0.696,0.911*2D::$GLGSA,A,3,65,72,74,75,76,,,,,,,,,,,,,,,,1.147,0.696,0.911*2B::$GPRMC,164759.00,A,4809.8191,N,01133.4754,E,0.000,243.510,121118,,E,A*1E::$GPGGA,164759.00,4809.8191,N,01133.4754,E,1,16,0.696,599.745,M,,M,0,*41::$GLGSV,7,6,25,75,86,86,34,76,42,215,32,82,6,325,17,83,8,11,*6B::$BDGSA,A,3,210,214,,,,,,,,,,,,,,,,,,,1.147,0.696,0.911*24",23514,2018-11-12 17:47:57:470
-0.5842,6.1579,7.0868,-0.7439,8.042,5.5625,0.6556,-1.6677,1.6355,-0.0611,-0.2615,-0.1552,0,22.44,-31.87,-15.94,261.57,-55.09,7.62,5,41.807,48.16345,11.558114,629.83,NaN,4.27,19,0,16 / 21,"$GNGSA,A,3,5,7,8,9,13,15,21,28,30,210,214,65,72,74,75,76,,,,,1.147,0.696,0.911*22::$GPGSV,7,4,25,30,70,61,37*7A::$GPGSA,A,3,5,7,8,9,13,15,21,28,30,,,,,,,,,,,,1.147,0.696,0.911*3E::$BDGSV,7,7,25,205,17,125,,207,8,39,,210,32,51,27,214,33,155,20*58::$QZGSA,A,3,,,,,,,,,,,,,,,,,,,,,1.147,0.696,0.911*2D::$GLGSA,A,3,65,72,74,75,76,,,,,,,,,,,,,,,,1.147,0.696,0.911*2B::$GPRMC,164759.00,A,4809.8191,N,01133.4754,E,0.000,243.510,121118,,E,A*1E::$GPGGA,164800.00,4809.8193,N,01133.4748,E,1,16,0.696,599.912,M,,M,0,*41::$GLGSV,7,6,25,75,86,86,34,76,42,215,32,82,6,325,17,83,8,11,*6B::$BDGSA,A,3,210,214,,,,,,,,,,,,,,,,,,,1.147,0.696,0.911*24",24014,2018-11-12 17:47:57:970
0.6129,8.169,4.5394,-0.6318,8.2046,5.3343,1.6713,-0.6044,-0.225,-0.0122,0.4032,-0.0305,0,21.31,-32.69,-16.37,261.85,-56.79,6.75,5,47.633,48.16345,11.558114,629.83,NaN,4.27,19,0,16 / 21,"$GNGSA,A,3,5,7,8,9,13,15,21,28,30,210,214,65,72,74,75,76,,,,,1.147,0.696,0.911*22::$GPGSV,7,4,25,30,70,61,37*7A::$GPGSA,A,3,5,7,8,9,13,15,21,28,30,,,,,,,,,,,,1.147,0.696,0.911*3E::$BDGSV,7,7,25,205,17,125,,207,8,39,,210,32,51,29,214,33,155,25*53::$QZGSA,A,3,,,,,,,,,,,,,,,,,,,,,1.147,0.696,0.911*2D::$GLGSA,A,3,65,72,74,75,76,,,,,,,,,,,,,,,,1.147,0.696,0.911*2B::$GPRMC,164800.00,A,4809.8193,N,01133.4748,E,0.000,243.510,121118,,E,A*12::$GPGGA,164800.00,4809.8193,N,01133.4748,E,1,16,0.696,599.912,M,,M,0,*41::$GLGSV,7,6,25,75,86,86,33,76,42,215,32,82,6,325,18,83,8,11,*63::$BDGSA,A,3,210,214,,,,,,,,,,,,,,,,,,,1.147,0.696,0.911*24",24514,2018-11-12 17:47:58:470
-1.2737,10.6207,9.9407,-1.0375,8.2358,5.2215,-0.8943,0.6881,8.2233,0.2187,-0.3812,0.6365,0,22.94,-32.5,-13.62,264.03,-57.12,11.24,5,48.658,48.16345,11.558114,629.83,NaN,4.27,19,0,16 / 21,"$GNGSA,A,3,5,7,8,9,13,15,21,28,30,210,214,65,72,74,75,76,,,,,1.147,0.696,0.911*22::$GPGSV,7,4,25,30,70,61,36*7B::$GPGSA,A,3,5,7,8,9,13,15,21,28,30,,,,,,,,,,,,1.147,0.696,0.911*3E::$BDGSV,7,7,25,205,17,125,,207,8,39,,210,32,51,24,214,33,155,26*5D::$QZGSA,A,3,,,,,,,,,,,,,,,,,,,,,1.147,0.696,0.911*2D::$GLGSA,A,3,65,72,74,75,76,,,,,,,,,,,,,,,,1.147,0.696,0.911*2B::$GPRMC,164801.00,A,4809.8192,N,01133.4740,E,2.300,236.162,121118,,E,A*18::$GPGGA,164801.00,4809.8192,N,01133.4740,E,1,16,0.696,599.651,M,,M,0,*41::$GLGSV,7,6,25,75,86,86,33,76,42,215,28,82,6,324,22,83,8,11,*60::$BDGSA,A,3,210,214,,,,,,,,,,,,,,,,,,,1.147,0.696,0.911*24",25015,2018-11-12 17:47:58:971
-1.2737,11.4251,6.9623,-0.3902,8.2934,5.2188,-0.3256,3.1999,2.8029,0.3629,0.5705,0.0464,0,19.25,-33.12,-15.56,260.66,-57.75,4.28,5,48.117,48.16345,11.558114,629.83,NaN,4.27,19,0,16 / 21,"$GNGSA,A,3,5,7,8,9,13,15,21,28,30,210,214,65,72,74,75,76,,,,,1.147,0.696,0.911*22::$GPGSV,7,4,25,30,70,61,36*7B::$GPGSA,A,3,5,7,8,9,13,15,21,28,30,,,,,,,,,,,,1.147,0.696,0.911*3E::$BDGSV,7,7,25,205,17,125,,207,8,39,,210,32,51,24,214,33,155,26*5D::$QZGSA,A,3,,,,,,,,,,,,,,,,,,,,,1.147,0.696,0.911*2D::$GLGSA,A,3,65,72,74,75,76,,,,,,,,,,,,,,,,1.147,0.696,0.911*2B::$GPRMC,164801.00,A,4809.8192,N,01133.4740,E,2.300,236.162,121118,,E,A*18::$GPGGA,164801.00,4809.8192,N,01133.4740,E,1,16,0.696,599.651,M,,M,0,*41::$GLGSV,7,6,25,75,86,86,33,76,42,215,28,82,6,324,22,83,8,11,*60::$BDGSA,A,3,210,214,,,,,,,,,,,,,,,,,,,1.147,0.696,0.911*24",25514,2018-11-12 17:47:59:470
-1.7526,10.8218,8.1499,-0.7735,8.4478,4.9199,0.1443,-0.176,-0.2074,0.0965,0.6426,0.2297,0,20.38,-34.37,-10.56,253.84,-59.48,8.93,5,45.587,48.16345,11.558114,629.83,NaN,4.27,19,0,16 / 21,"$GNGSA,A,3,5,7,8,9,13,15,21,28,30,210,214,65,72,74,75,76,,,,,1.147,0.696,0.911*22::$GPGSV,7,4,25,30,70,61,36*7B::$GPGSA,A,3,5,7,8,9,13,15,21,28,30,,,,,,,,,,,,1.147,0.696,0.911*3E::$BDGSV,7,7,25,205,17,125,,207,8,39,,210,32,51,24,214,33,155,26*5D::$QZGSA,A,3,,,,,,,,,,,,,,,,,,,,,1.147,0.696,0.911*2D::$GLGSA,A,3,65,72,74,75,76,,,,,,,,,,,,,,,,1.147,0.696,0.911*2B::$GPRMC,164801.00,A,4809.8192,N,01133.4740,E,2.300,236.162,121118,,E,A*18::$GPGGA,164802.00,4809.8191,N,01133.4729,E,1,16,0.696,599.431,M,,M,0,*4A::$GLGSV,7,6,25,75,86,86,33,76,42,215,28,82,6,324,22,83,8,11,*60::$BDGSA,A,3,210,214,,,,,,,,,,,,,,,,,,,1.147,0.696,0.911*24",26015,2018-11-12 17:47:59:971
-1.312,9.8833,6.79,-0.744,8.1832,5.3527,-1.004,1.7179,2.1311,0.0037,-0.3946,-0.0098,0,16.25,-35.5,-9.62,237.6,-56.56,7.91,5,46.559,48.16345,11.558114,629.83,NaN,4.27,19,0,16 / 21,"$GNGSA,A,3,5,7,8,9,13,15,21,28,30,210,214,65,72,74,75,76,,,,,1.147,0.696,0.911*22::$GPGSV,7,4,25,30,70,61,34*79::$GPGSA,A,3,5,7,8,9,13,15,21,28,30,,,,,,,,,,,,1.147,0.696,0.911*3E::$BDGSV,7,7,25,205,17,125,,207,8,39,,210,32,51,22,214,33,155,23*5E::$QZGSA,A,3,,,,,,,,,,,,,,,,,,,,,1.147,0.696,0.911*2D::$GLGSA,A,3,65,72,74,75,76,,,,,,,,,,,,,,,,1.147,0.696,0.911*2B::$GPRMC,164802.00,A,4809.8191,N,01133.4729,E,0.000,236.162,121118,,E,A*16::$GPGGA,164802.00,4809.8191,N,01133.4729,E,1,16,0.696,599.431,M,,M,0,*4A::$GLGSV,7,6,25,75,86,86,33,76,42,215,25,82,6,324,25,83,8,11,*6A::$BDGSA,A,3,210,214,,,,,,,,,,,,,,,,,,,1.147,0.696,0.911*24",26514,2018-11-12 17:48:00:470
0.182,8.3222,5.2768,-0.583,8.1063,5.4878,0.6104,0.4153,-0.2854,-0.1002,0.3311,-0.0672,0,16.06,-33.87,-13.81,244.76,-55.27,3.06,5,46.855,48.16345,11.558114,629.83,NaN,4.27,19,0,16 / 21,"$GNGSA,A,3,5,7,8,9,13,15,21,28,30,210,214,65,72,74,75,76,,,,,1.147,0.696,0.911*22::$GPGSV,7,4,25,30,70,61,34*79::$GPGSA,A,3,5,7,8,9,13,15,21,28,30,,,,,,,,,,,,1.147,0.696,0.911*3E::$BDGSV,7,7,25,205,17,125,,207,8,39,,210,32,51,22,214,33,155,23*5E::$QZGSA,A,3,,,,,,,,,,,,,,,,,,,,,1.147,0.696,0.911*2D::$GLGSA,A,3,65,72,74,75,76,,,,,,,,,,,,,,,,1.147,0.696,0.911*2B::$GPRMC,164802.00,A,4809.8191,N,01133.4729,E,0.000,236.162,121118,,E,A*16::$GPGGA,164803.00,4809.8191,N,01133.4722,E,1,16,0.696,598.866,M,,M,0,*4F::$GLGSV,7,6,25,75,86,86,33,76,42,215,25,82,6,324,25,83,8,11,*6A::$BDGSA,A,3,210,214,,,,,,,,,,,,,,,,,,,1.147,0.696,0.911*24",27014,2018-11-12 17:48:00:970
-1.0056,6.2345,5.0087,-0.5196,8.0831,5.5283,-0.3867,-1.6363,-0.5748,-0.11,-0.1283,-0.1026,0,15.69,-34.5,-8.62,237.45,-56.99,6.57,5,51.861,48.16345,11.558114,629.83,NaN,4.27,19,0,16 / 21,"$GNGSA,A,3,5,7,8,9,13,15,21,28,30,210,214,65,72,74,75,76,,,,,1.147,0.696,0.911*22::$GPGSV,6,3,22,28,45,139,29,30,70,61,35*42::$GPGSA,A,3,5,7,8,9,13,15,21,28,30,,,,,,,,,,,,1.147,0.696,0.911*3E::$BDGSV,6,6,22,205,17,125,,207,8,39,,210,32,51,26,214,33,155,26*58::$QZGSA,A,3,,,,,,,,,,,,,,,,,,,,,1.147,0.696,0.911*2D::$GLGSA,A,3,65,72,74,75,76,,,,,,,,,,,,,,,,1.147,0.696,0.911*2B::$GPRMC,164803.00,A,4809.8191,N,01133.4722,E,0.999,236.162,121118,,E,A*15::$GPGGA,164803.00,4809.8191,N,01133.4722,E,1,16,0.696,598.866,M,,M,0,*4F::$GLGSV,6,5,22,75,86,86,33,76,42,215,20,82,6,324,18,83,8,11,*64::$BDGSA,A,3,210,214,,,,,,,,,,,,,,,,,,,1.147,0.696,0.911*24",27514,2018-11-12 17:48:01:470
0.9577,7.9487,4.1851,-0.7891,8.0761,5.5067,1.304,-0.5001,-0.8387,-0.0916,0.5852,0.1796,0,17,-35.19,-11.31,239.76,-55.44,8.15,5,56.993,48.16345,11.558114,629.83,NaN,4.27,19,0,16 / 21,"$GNGSA,A,3,5,7,8,9,13,15,21,28,30,210,214,65,72,74,75,76,,,,,1.146,0.696,0.911*23::$GPGSV,6,3,22,28,45,139,29,30,70,61,37*40::$GPGSA,A,3,5,7,8,9,13,15,21,28,30,,,,,,,,,,,,1.146,0.696,0.911*3F::$BDGSV,6,6,22,205,17,125,,207,8,39,,210,32,51,26,214,33,155,26*58::$QZGSA,A,3,,,,,,,,,,,,,,,,,,,,,1.146,0.696,0.911*2C::$GLGSA,A,3,65,72,74,75,76,,,,,,,,,,,,,,,,1.146,0.696,0.911*2A::$GPRMC,164803.00,A,4809.8191,N,01133.4722,E,0.999,236.162,121118,,E,A*15::$GPGGA,164804.00,4809.8188,N,01133.4712,E,1,16,0.696,598.267,M,,M,0,*48::$GLGSV,6,5,22,75,86,86,33,76,42,215,20,82,6,324,18,83,8,11,*64::$BDGSA,A,3,210,214,,,,,,,,,,,,,,,,,,,1.146,0.696,0.911*25",28014,2018-11-12 17:48:01:970
-2.0303,9.7971,7.6902,-1.3441,7.9092,5.6397,-1.0471,1.4364,2.664,0.0855,0.4313,0.6866,0,13.69,-37.44,-8.81,223.4,-53.76,13.41,5,59.324,48.16345,11.558114,629.83,NaN,4.27,19,0,16 / 21,"$GNGSA,A,3,5,7,8,9,13,15,21,28,30,210,214,65,72,74,75,76,,,,,1.146,0.696,0.911*23::$GPGSV,6,3,22,28,45,139,29,30,70,61,37*40::$GPGSA,A,3,5,7,8,9,13,15,21,28,30,,,,,,,,,,,,1.146,0.696,0.911*3F::$BDGSV,6,6,22,205,17,125,,207,8,39,,210,32,51,26,214,33,155,29*57::$QZGSA,A,3,,,,,,,,,,,,,,,,,,,,,1.146,0.696,0.911*2C::$GLGSA,A,3,65,72,74,75,76,,,,,,,,,,,,,,,,1.146,0.696,0.911*2A::$GPRMC,164804.00,A,4809.8188,N,01133.4712,E,1.258,236.162,121118,,E,A*1E::$GPGGA,164804.00,4809.8188,N,01133.4712,E,1,16,0.696,598.267,M,,M,0,*48::$GLGSV,6,5,22,75,86,86,33,76,42,215,20,82,6,324,21,83,8,11,*6E::$BDGSA,A,3,210,214,,,,,,,,,,,,,,,,,,,1.146,0.696,0.911*25",28514,2018-11-12 17:48:02:470
-0.8332,8.5138,4.8459,-1.3725,8.3071,5.0276,-0.373,0.4501,-0.2126,-0.204,-1.0507,0.4349,0,10.25,-38.69,-6.5,210.69,-57.9,15.27,5,61.763,48.16345,11.558114,629.83,NaN,4.27,19,0,16 / 21,"$GNGSA,A,3,5,7,8,9,13,15,21,28,30,210,214,65,72,74,75,76,,,,,1.146,0.696,0.911*23::$GPGSV,6,3,22,28,45,139,27,30,70,61,35*4C::$GPGSA,A,3,5,7,8,9,13,15,21,28,30,,,,,,,,,,,,1.146,0.696,0.911*3F::$BDGSV,6,6,22,205,17,125,,207,8,39,,210,32,51,26,214,33,155,32*5D::$QZGSA,A,3,,,,,,,,,,,,,,,,,,,,,1.146,0.696,0.911*2C::$GLGSA,A,3,65,72,74,75,76,,,,,,,,,,,,,,,,1.146,0.696,0.911*2A::$GPRMC,164805.00,A,4809.8185,N,01133.4707,E,1.263,236.162,121118,,E,A*1E::$GPGGA,164805.00,4809.8185,N,01133.4707,E,1,16,0.696,597.619,M,,M,0,*42::$GLGSV,6,5,22,75,86,86,34,76,42,215,20,82,6,324,21,83,8,11,*69::$BDGSA,A,3,210,214,,,,,,,,,,,,,,,,,,,1.146,0.696,0.911*25",29014,2018-11-12 17:48:02:970
-0.7183,7.4508,3.237,-1.0382,8.0406,5.5172,0.1262,0.1086,-0.2706,-0.0171,0.0122,-0.2847,0,16.88,-35.69,-10.31,236.13,-55.08,10.66,5,58.73,48.16345,11.558114,629.83,NaN,4.27,19,0,16 / 21,"$GNGSA,A,3,5,7,8,9,13,15,21,28,30,210,214,65,72,74,75,76,,,,,1.146,0.696,0.911*23::$GPGSV,6,3,22,28,45,139,27,30,70,61,35*4C::$GPGSA,A,3,5,7,8,9,13,15,21,28,30,,,,,,,,,,,,1.146,0.696,0.911*3F::$BDGSV,6,6,22,205,17,125,,207,8,39,,210,32,51,26,214,33,155,32*5D::$QZGSA,A,3,,,,,,,,,,,,,,,,,,,,,1.146,0.696,0.911*2C::$GLGSA,A,3,65,72,74,75,76,,,,,,,,,,,,,,,,1.146,0.696,0.911*2A::$GPRMC,164805.00,A,4809.8185,N,01133.4707,E,1.263,236.162,121118,,E,A*1E::$GPGGA,164805.00,4809.8185,N,01133.4707,E,1,16,0.696,597.619,M,,M,0,*42::$GLGSV,6,5,22,75,86,86,34,76,42,215,20,82,6,324,21,83,8,11,*69::$BDGSA,A,3,210,214,,,,,,,,,,,,,,,,,,,1.146,0.696,0.911*25",29514,2018-11-12 17:48:03:470
-1.6472,8.0445,1.8962,-1.0337,8.0261,5.5392,0.9944,-1.9754,-1.9499,0.1845,-0.3018,-0.1784,0,16.69,-36.75,-9.69,234.37,-54.93,10.57,5,51.401,48.16345,11.558114,629.83,NaN,4.27,19,0,16 / 21,"$GNGSA,A,3,5,7,8,9,13,15,21,28,30,210,214,65,72,74,75,76,,,,,1.146,0.696,0.911*23::$GPGSV,6,3,22,28,45,139,27,30,70,61,35*4C::$GPGSA,A,3,5,7,8,9,13,15,21,28,30,,,,,,,,,,,,1.146,0.696,0.911*3F::$BDGSV,6,6,22,205,17,125,,207,8,39,,210,32,51,26,214,33,155,32*5D::$QZGSA,A,3,,,,,,,,,,,,,,,,,,,,,1.146,0.696,0.911*2C::$GLGSA,A,3,65,72,74,75,76,,,,,,,,,,,,,,,,1.146,0.696,0.911*2A::$GPRMC,164805.00,A,4809.8185,N,01133.4707,E,1.263,236.162,121118,,E,A*1E::$GPGGA,164805.00,4809.8185,N,01133.4707,E,1,16,0.696,597.619,M,,M,0,*42::$GLGSV,6,5,22,75,86,86,34,76,42,215,20,82,6,324,21,83,8,11,*69::$BDGSA,A,3,210,214,,,,,,,,,,,,,,,,,,,1.146,0.696,0.911*25",30014,2018-11-12 17:48:03:970
-0.5746,6.2153,2.1931,-0.234,7.8558,5.8653,3.0583,1.4605,2.6958,0.2004,0.2749,-0.4972,0,17.19,-35.19,-13.37,238.73,-53.23,2.28,5,49.67,48.16345,11.558114,629.83,NaN,4.27,19,0,16 / 21,"$GNGSA,A,3,5,7,8,9,13,15,21,28,30,210,214,65,72,74,75,76,,,,,1.146,0.696,0.911*23::$GPGSV,6,3,22,28,45,139,25,30,70,61,37*4C::$GPGSA,A,3,5,7,8,9,13,15,21,28,30,,,,,,,,,,,,1.146,0.696,0.911*3F::$BDGSV,6,6,22,205,17,125,,207,8,39,,210,32,51,28,214,33,155,23*53::$QZGSA,A,3,,,,,,,,,,,,,,,,,,,,,1.146,0.696,0.911*2C::$GLGSA,A,3,65,72,74,75,76,,,,,,,,,,,,,,,,1.146,0.696,0.911*2A::$GPRMC,164806.00,A,4809.8180,N,01133.4698,E,1.847,223.305,121118,,E,A*14::$GPGGA,164806.00,4809.8180,N,01133.4698,E,1,16,0.696,597.266,M,,M,0,*4F::$GLGSV,6,5,22,75,86,85,32,76,42,215,23,82,6,324,20,83,8,11,*6E::$BDGSA,A,3,210,214,,,,,,,,,,,,,,,,,,,1.146,0.696,0.911*25",30514,2018-11-12 17:48:04:470
-0.2873,6.2441,3.9456,-1.025,8.1024,5.4285,1.8193,-2.189,0.0925,-0.7428,0.0415,-0.0953,0,20.63,-34.5,-8.69,245.54,-55.71,10.69,5,49.883,48.16345,11.558114,629.83,NaN,4.27,19,0,16 / 21,"$GNGSA,A,3,5,7,8,9,13,15,21,28,30,210,214,65,72,74,75,76,,,,,1.146,0.696,0.911*23::$GPGSV,6,3,22,28,45,139,25,30,70,61,37*4C::$GPGSA,A,3,5,7,8,9,13,15,21,28,30,,,,,,,,,,,,1.146,0.696,0.911*3F::$BDGSV,6,6,22,205,17,125,,207,8,39,,210,32,51,28,214,33,155,23*53::$QZGSA,A,3,,,,,,,,,,,,,,,,,,,,,1.146,0.696,0.911*2C::$GLGSA,A,3,65,72,74,75,76,,,,,,,,,,,,,,,,1.146,0.696,0.911*2A::$GPRMC,164806.00,A,4809.8180,N,01133.4698,E,1.847,223.305,121118,,E,A*14::$GPGGA,164807.00,4809.8177,N,01133.4692,E,1,16,0.696,597.002,M,,M,0,*4C::$GLGSV,6,5,22,75,86,85,32,76,42,215,23,82,6,324,20,83,8,11,*6E::$BDGSA,A,3,210,214,,,,,,,,,,,,,,,,,,,1.146,0.696,0.911*25",31014,2018-11-12 17:48:04:970
-1.3312,5.6503,4.2138,-0.8599,7.9533,5.6723,0.5853,-1.932,-1.5829,0.0953,-0.0574,-0.3286,0,20.13,-34.5,-11.56,244.23,-53.42,6.01,5,47.656,48.16345,11.558114,629.83,NaN,4.27,19,0,16 / 21,"$GNGSA,A,3,5,7,8,9,13,15,21,28,30,210,214,65,72,74,75,76,,,,,1.146,0.696,0.911*23::$GPGSV,6,3,22,28,45,139,26,30,70,61,37*4F::$GPGSA,A,3,5,7,8,9,13,15,21,28,30,,,,,,,,,,,,1.146,0.696,0.911*3F::$BDGSV,6,6,22,205,17,125,,207,8,39,,210,32,51,25,214,33,155,23*5E::$QZGSA,A,3,,,,,,,,,,,,,,,,,,,,,1.146,0.696,0.911*2C::$GLGSA,A,3,65,72,74,75,76,,,,,,,,,,,,,,,,1.146,0.696,0.911*2A::$GPRMC,164807.00,A,4809.8177,N,01133.4692,E,0.000,223.305,121118,,E,A*1D::$GPGGA,164807.00,4809.8177,N,01133.4692,E,1,16,0.696,597.002,M,,M,0,*4C::$GLGSV,6,5,22,75,86,85,33,76,42,215,24,82,6,324,17,83,8,11,*6C::$BDGSA,A,3,210,214,,,,,,,,,,,,,,,,,,,1.146,0.696,0.911*25",31514,2018-11-12 17:48:05:470
0.0383,6.4643,6.5218,-1.0369,8.0064,5.567,0.0954,-2.8383,-0.3793,0.0305,0.4154,0.3629,0,21.94,-34.12,-7.87,252.31,-58.82,15.03,5,47.293,48.16345,11.558114,629.83,NaN,4.27,19,0,16 / 21,"$GNGSA,A,3,5,7,8,9,13,15,21,28,30,210,214,65,72,74,75,76,,,,,1.146,0.696,0.911*23::$GPGSV,6,3,22,28,45,139,26,30,70,61,37*4F::$GPGSA,A,3,5,7,8,9,13,15,21,28,30,,,,,,,,,,,,1.146,0.696,0.911*3F::$BDGSV,6,6,22,205,17,125,,207,8,39,,210,32,51,25,214,33,155,23*5E::$QZGSA,A,3,,,,,,,,,,,,,,,,,,,,,1.146,0.696,0.911*2C::$GLGSA,A,3,65,72,74,75,76,,,,,,,,,,,,,,,,1.146,0.696,0.911*2A::$GPRMC,164807.00,A,4809.8177,N,01133.4692,E,0.000,223.305,121118,,E,A*1D::$GPGGA,164807.00,4809.8177,N,01133.4692,E,1,16,0.696,597.002,M,,M,0,*4C::$GLGSV,6,5,22,75,86,85,33,76,42,215,24,82,6,324,17,83,8,11,*6C::$BDGSA,A,3,210,214,,,,,,,,,,,,,,,,,,,1.146,0.696,0.911*25",32014,2018-11-12 17:48:05:970
-0.3639,7.4316,4.865,-0.5507,8.3311,5.1438,1.6099,-1.5939,-1.8782,-0.5644,-0.2761,-0.7343,0,22.19,-34.87,-9,250.61,-57.45,15.25,5,43.657,48.16345,11.558114,629.83,NaN,4.27,19,0,16 / 21,"$GNGSA,A,3,5,7,8,9,13,15,21,28,30,210,214,65,72,74,75,76,,,,,1.146,0.696,0.911*23::$GPGSV,6,3,22,28,45,139,23,30,69,61,36*43::$GPGSA,A,3,5,7,8,9,13,15,21,28,30,,,,,,,,,,,,1.146,0.696,0.911*3F::$BDGSV,6,6,22,205,17,125,,207,8,39,,210,32,51,28,214,33,155,23*53::$QZGSA,A,3,,,,,,,,,,,,,,,,,,,,,1.146,0.696,0.911*2C::$GLGSA,A,3,65,72,74,75,76,,,,,,,,,,,,,,,,1.146,0.696,0.911*2A::$GPRMC,164808.00,A,4809.8174,N,01133.4688,E,1.303,223.305,121118,,E,A*1B::$GPGGA,164808.00,4809.8174,N,01133.4688,E,1,16,0.696,596.726,M,,M,0,*4B::$GLGSV,6,5,22,75,86,85,33,76,42,215,22,82,6,324,17,83,8,11,*6A::$BDGSA,A,3,210,214,,,,,,,,,,,,,,,,,,,1.146,0.696,0.911*25",32514,2018-11-12 17:48:06:470
-2.2027,11.2336,7.2496,-1.2003,8.1892,5.2598,-1.2512,0.1268,2.301,-0.0977,-0.1955,0.4862,0,23.38,-33.5,-9.75,254.14,-56.62,12.85,5,42.093,48.16345,11.558114,629.83,NaN,4.27,19,0,16 / 21,"$GNGSA,A,3,5,7,8,9,13,15,21,28,30,210,214,65,72,74,75,76,,,,,1.146,0.696,0.911*23::$GPGSV,6,3,22,28,45,139,23,30,69,61,36*43::$GPGSA,A,3,5,7,8,9,13,15,21,28,30,,,,,,,,,,,,1.146,0.696,0.911*3F::$BDGSV,6,6,22,205,17,125,,207,8,39,,210,32,51,28,214,33,155,23*53::$QZGSA,A,3,,,,,,,,,,,,,,,,,,,,,1.146,0.696,0.911*2C::$GLGSA,A,3,65,72,74,75,76,,,,,,,,,,,,,,,,1.146,0.696,0.911*2A::$GPRMC,164808.00,A,4809.8174,N,01133.4688,E,1.303,223.305,121118,,E,A*1B::$GPGGA,164808.00,4809.8174,N,01133.4688,E,1,16,0.696,596.726,M,,M,0,*4B::$GLGSV,6,5,22,75,86,85,33,76,42,215,22,82,6,324,17,83,8,11,*6A::$BDGSA,A,3,210,214,,,,,,,,,,,,,,,,,,,1.146,0.696,0.911*25",33014,2018-11-12 17:48:06:970
-0.6512,10.1035,5.047,-0.1968,7.9941,5.6767,0.3243,1.479,7.3955,0.7282,-0.1527,0.0171,0,20.63,-34.12,-14.31,249.43,-54.6,1.99,5,41.834,48.16345,11.558114,629.83,NaN,4.27,19,0,16 / 21,"$GNGSA,A,3,5,7,8,9,13,15,21,28,30,210,214,65,72,74,75,76,,,,,1.146,0.696,0.911*23::$GPGSV,6,3,22,28,45,139,25,30,69,61,37*44::$GPGSA,A,3,5,7,8,9,13,15,21,28,30,,,,,,,,,,,,1.146,0.696,0.911*3F::$BDGSV,6,6,22,205,17,125,,207,8,39,,210,32,51,28,214,33,155,23*53::$QZGSA,A,3,,,,,,,,,,,,,,,,,,,,,1.146,0.696,0.911*2C::$GLGSA,A,3,65,72,74,75,76,,,,,,,,,,,,,,,,1.146,0.696,0.911*2A::$GPRMC,164809.00,A,4809.8172,N,01133.4678,E,1.686,223.305,121118,,E,A*1B::$GPGGA,164809.00,4809.8172,N,01133.4678,E,1,16,0.696,596.094,M,,M,0,*4D::$GLGSV,6,5,22,75,86,85,34,76,42,215,29,82,6,324,17,83,8,11,*66::$BDGSA,A,3,210,214,,,,,,,,,,,,,,,,,,,1.146,0.696,0.911*25",33514,2018-11-12 17:48:07:470
-1.5323,9.4236,4.3958,-1.2034,8.4733,4.7878,-0.8363,1.7255,1.9394,0.2187,0.766,0.1967,0,24.75,-34,-10.69,263.04,-59.77,14.11,5,42.824,48.16345,11.558114,629.83,NaN,4.27,19,0,16 / 21,"$GNGSA,A,3,5,7,8,9,13,15,21,28,30,210,214,65,72,74,75,76,,,,,1.146,0.696,0.911*23::$GPGSV,6,3,22,28,45,139,24,30,69,61,36*44::$GPGSA,A,3,5,7,8,9,13,15,21,28,30,,,,,,,,,,,,1.146,0.696,0.911*3F::$BDGSV,6,6,22,205,17,125,,207,8,39,,210,32,51,23,214,33,155,25*5E::$QZGSA,A,3,,,,,,,,,,,,,,,,,,,,,1.146,0.696,0.911*2C::$GLGSA,A,3,65,72,74,75,76,,,,,,,,,,,,,,,,1.146,0.696,0.911*2A::$GPRMC,164810.00,A,4809.8169,N,01133.4669,E,1.979,249.119,121118,,E,A*15::$GPGGA,164810.00,4809.8169,N,01133.4669,E,1,16,0.696,595.815,M,,M,0,*4D::$GLGSV,6,5,22,75,86,85,33,76,42,215,30,82,6,324,17,83,8,11,*69::$BDGSA,A,3,210,214,,,,,,,,,,,,,,,,,,,1.146,0.696,0.911*25",34015,2018-11-12 17:48:07:971
-0.1724,7.7476,4.2329,-0.456,8.2369,5.3023,-0.4854,0.5497,-0.2322,0.0782,-0.4068,-0.1454,1,19.75,-35.31,-12.37,248.32,-57.13,4.92,5,39.044,48.16345,11.558114,629.83,NaN,4.27,19,0,16 / 21,"$GNGSA,A,3,5,7,8,9,13,15,21,28,30,210,214,65,72,74,75,76,,,,,1.146,0.696,0.911*23::$GPGSV,6,3,22,28,45,139,24,30,69,61,36*44::$GPGSA,A,3,5,7,8,9,13,15,21,28,30,,,,,,,,,,,,1.146,0.696,0.911*3F::$BDGSV,6,6,22,205,17,125,,207,8,39,,210,32,51,23,214,33,155,25*5E::$QZGSA,A,3,,,,,,,,,,,,,,,,,,,,,1.146,0.696,0.911*2C::$GLGSA,A,3,65,72,74,75,76,,,,,,,,,,,,,,,,1.146,0.696,0.911*2A::$GPRMC,164810.00,A,4809.8169,N,01133.4669,E,1.979,249.119,121118,,E,A*15::$GPGGA,164810.00,4809.8169,N,01133.4669,E,1,16,0.696,595.815,M,,M,0,*4D::$GLGSV,6,5,22,75,86,85,33,76,42,215,30,82,6,324,17,83,8,11,*69::$BDGSA,A,3,210,214,,,,,,,,,,,,,,,,,,,1.146,0.696,0.911*25",34514,2018-11-12 17:48:08:470
